[
  {
    "name": "PINCKNEYVILLE COMMUNITY HOSPITAL",
    "name2": "",
    "address": "101 NORTH WALNUT STREET",
    "address_2": "",
    "city": "PINCKNEYVILLE",
    "state": "IL",
    "zip_code": "62274",
    "description": "Critical Access Hospital",
    "website": "",
    "latitude": "38.08079400000",
    "longitude": "-89.38282500000"
  },
  {
    "name": "RUSH UNIVERSITY MEDICAL CENTER",
    "name2": "",
    "address": "1653 WEST CONGRESS PARKWAY",
    "address_2": "",
    "city": "CHICAGO",
    "state": "IL",
    "zip_code": "60612",
    "description": "General Hospital",
    "website": "www.rush.edu",
    "latitude": "41.87494600000",
    "longitude": "-87.66834900000"
  },
  {
    "name": "PROCTOR COMMUNITY HOSPITAL",
    "name2": "",
    "address": "5409 NORTH KNOXVILLE AVENUE",
    "address_2": "",
    "city": "PEORIA",
    "state": "IL",
    "zip_code": "61614",
    "description": "General Hospital",
    "website": "www.proctor.org",
    "latitude": "40.75239900000",
    "longitude": "-89.59350400000"
  },
  {
    "name": "RESURRECTION MEDICAL CENTER",
    "name2": "",
    "address": "7435 WEST TALCOTT AVENUE",
    "address_2": "",
    "city": "CHICAGO",
    "state": "IL",
    "zip_code": "60631",
    "description": "General Hospital",
    "website": "www.reshealth.org/locations/hospitals.cfm",
    "latitude": "41.98836900000",
    "longitude": "-87.81266100000"
  },
  {
    "name": "RIVERSIDE MEDICAL CENTER",
    "name2": "",
    "address": "350 NORTH WALL STREET",
    "address_2": "",
    "city": "KANKAKEE",
    "state": "IL",
    "zip_code": "60901",
    "description": "General Hospital",
    "website": "www.riversidehealthcare.org",
    "latitude": "41.12411700000",
    "longitude": "-87.88235100000"
  },
  {
    "name": "ROCHELLE COMMUNITY HOSPITAL",
    "name2": "",
    "address": "900 NORTH 2ND STREET",
    "address_2": "",
    "city": "ROCHELLE",
    "state": "IL",
    "zip_code": "61068",
    "description": "Critical Access Hospital",
    "website": "www.rcha.net",
    "latitude": "41.92831400000",
    "longitude": "-89.06281800000"
  },
  {
    "name": "ROCKFORD MEMORIAL HOSPITAL",
    "name2": "",
    "address": "2400 NO. ROCKTON AVE.",
    "address_2": "",
    "city": "ROCKFORD",
    "state": "IL",
    "zip_code": "61103",
    "description": "General Hospital",
    "website": "www.rhsnet.org",
    "latitude": "42.29780800000",
    "longitude": "-89.09695800000"
  },
  {
    "name": "ROSELAND COMMUNITY HOSPITAL",
    "name2": "",
    "address": "45 WEST 111TH STREET",
    "address_2": "",
    "city": "CHICAGO",
    "state": "IL",
    "zip_code": "60628",
    "description": "General Hospital",
    "website": "www.roselandhospital.org",
    "latitude": "41.69243400000",
    "longitude": "-87.62432900000"
  },
  {
    "name": "COMMUNITY HOSPITAL OF OTTAWA",
    "name2": "",
    "address": "1100 EAST NORRIS DRIVE",
    "address_2": "",
    "city": "OTTAWA",
    "state": "IL",
    "zip_code": "61350",
    "description": "General Hospital",
    "website": "www.chottawa.org",
    "latitude": "41.35592400000",
    "longitude": "-88.85549100000"
  },
  {
    "name": "SALEM TOWNSHIP HOSPITAL",
    "name2": "",
    "address": "1201 RICKER DRIVE",
    "address_2": "",
    "city": "SALEM",
    "state": "IL",
    "zip_code": "62881",
    "description": "General Hospital",
    "website": "",
    "latitude": "38.63949800000",
    "longitude": "-88.94407100000"
  },
  {
    "name": "SARAH D. CULBERTSON MEMORIAL HOSPITAL",
    "name2": "",
    "address": "238 SOUTH CONGRESS STREET",
    "address_2": "",
    "city": "RUSHVILLE",
    "state": "IL",
    "zip_code": "62681",
    "description": "General Hospital",
    "website": "www.cmhospital.com",
    "latitude": "40.11818400000",
    "longitude": "-90.56339900000"
  },
  {
    "name": "SHELBY MEMORIAL HOSPITAL",
    "name2": "",
    "address": "200 SOUTH CEDAR STREET",
    "address_2": "",
    "city": "SHELBYVILLE",
    "state": "IL",
    "zip_code": "62565",
    "description": "General Hospital",
    "website": "",
    "latitude": "39.40570600000",
    "longitude": "-88.80750100000"
  },
  {
    "name": "SHERMAN HOSPITAL ASSOCIATION",
    "name2": "",
    "address": "934 CENTER STREET",
    "address_2": "",
    "city": "ELGIN",
    "state": "IL",
    "zip_code": "60120",
    "description": "General Hospital",
    "website": "www.shermanhealth.com",
    "latitude": "42.05385200000",
    "longitude": "-88.28121000000"
  },
  {
    "name": "SILVER CROSS HOSPITAL",
    "name2": "",
    "address": "1200 MAPLE STREET",
    "address_2": "",
    "city": "JOLIET",
    "state": "IL",
    "zip_code": "60432",
    "description": "General Hospital",
    "website": "www.silvercross.org",
    "latitude": "41.53715500000",
    "longitude": "-88.05338700000"
  },
  {
    "name": "RUSH NORTH SHORE MEDICAL CENTER",
    "name2": "",
    "address": "9600 GROSS POINT ROAD",
    "address_2": "",
    "city": "SKOKIE",
    "state": "IL",
    "zip_code": "60076",
    "description": "General Hospital",
    "website": "www.rnsmc.org",
    "latitude": "42.05531700000",
    "longitude": "-87.74007100000"
  },
  {
    "name": "ALEXIAN BROTHERS MEDICAL CENTER",
    "name2": "",
    "address": "800 WEST BIESTERFIELD ROAD",
    "address_2": "",
    "city": "ELK GROVE VILLAG",
    "state": "IL",
    "zip_code": "60007",
    "description": "General Hospital",
    "website": "www.alexian.org",
    "latitude": "42.00362700000",
    "longitude": "-88.02025400000"
  },
  {
    "name": "SAINT ANTHONY MEDICAL CENTER",
    "name2": "",
    "address": "5666 EAST STATE STREET",
    "address_2": "",
    "city": "ROCKFORD",
    "state": "IL",
    "zip_code": "61108",
    "description": "General Hospital",
    "website": "www.osfhealth.com/",
    "latitude": "42.26622200000",
    "longitude": "-89.00573400000"
  },
  {
    "name": "ST. ANTHONY'S MEMORIAL HOSPITAL",
    "name2": "",
    "address": "503 NORTH MAPLE STREET",
    "address_2": "",
    "city": "EFFINGHAM",
    "state": "IL",
    "zip_code": "62401",
    "description": "General Hospital",
    "website": "www.stanthonyshospital.org",
    "latitude": "39.12574300000",
    "longitude": "-88.54951700000"
  },
  {
    "name": "ST. BERNARD HOSPITAL",
    "name2": "",
    "address": "326 WEST 64TH STREET",
    "address_2": "",
    "city": "CHICAGO",
    "state": "IL",
    "zip_code": "60621",
    "description": "General Hospital",
    "website": "www.stbernardhospital.com",
    "latitude": "41.77809700000",
    "longitude": "-87.63335900000"
  },
  {
    "name": "ST. ELIZABETH'S HOSPITAL",
    "name2": "",
    "address": "211 SOUTH 3RD STREET",
    "address_2": "",
    "city": "BELLEVILLE",
    "state": "IL",
    "zip_code": "62221",
    "description": "General Hospital",
    "website": "www.steliz.org",
    "latitude": "38.51160800000",
    "longitude": "-89.98841400000"
  },
  {
    "name": "ST. FRANCIS HOSPITAL",
    "name2": "",
    "address": "1215 EAST UNION AVENUE",
    "address_2": "P. O. BOX 1215",
    "city": "LITCHFIELD",
    "state": "IL",
    "zip_code": "62056",
    "description": "General Hospital",
    "website": "www.stfrancis-litchfield.org",
    "latitude": "39.17789300000",
    "longitude": "-89.64094300000"
  },
  {
    "name": "ST. FRANCIS HOSPITAL OF EVANSTON",
    "name2": "",
    "address": "355 RIDGE AVENUE",
    "address_2": "",
    "city": "EVANSTON",
    "state": "IL",
    "zip_code": "60202",
    "description": "General Hospital",
    "website": "www.reshealth.org",
    "latitude": "42.02386500000",
    "longitude": "-87.68483700000"
  },
  {
    "name": "ST. JAMES HOSPITAL AND HEALTH CENTERS",
    "name2": "",
    "address": "1423 CHICAGO ROAD",
    "address_2": "",
    "city": "CHICAGO HEIGHTS",
    "state": "IL",
    "zip_code": "60411",
    "description": "General Hospital",
    "website": "www.stjameshhc.org",
    "latitude": "41.51426900000",
    "longitude": "-87.64227200000"
  },
  {
    "name": "ST. JOSEPH'S HOSPITAL",
    "name2": "",
    "address": "9515 HOLY CROSS LANE",
    "address_2": "",
    "city": "BREESE",
    "state": "IL",
    "zip_code": "62230",
    "description": "General Hospital",
    "website": "www.stjoebreese.com",
    "latitude": "38.62519000000",
    "longitude": "-89.52101700000"
  },
  {
    "name": "ST. JOSEPH MEDICAL CENTER",
    "name2": "",
    "address": "2200 EAST WASHINGTON STREET",
    "address_2": "",
    "city": "BLOOMINGTON",
    "state": "IL",
    "zip_code": "61701",
    "description": "General Hospital",
    "website": "www.osfstjoseph.org",
    "latitude": "40.48009700000",
    "longitude": "-88.95723300000"
  },
  {
    "name": "ST. JOSEPH'S HOSPITAL",
    "name2": "",
    "address": "1515 MAIN STREET",
    "address_2": "",
    "city": "HIGHLAND",
    "state": "IL",
    "zip_code": "62249",
    "description": "General Hospital",
    "website": "www.stjosephs-highland.org",
    "latitude": "38.74065300000",
    "longitude": "-89.67250800000"
  },
  {
    "name": "ST. MARGARET'S HOSPITAL",
    "name2": "",
    "address": "600 EAST FIRST STREET",
    "address_2": "",
    "city": "SPRING VALLEY",
    "state": "IL",
    "zip_code": "61362",
    "description": "General Hospital",
    "website": "www.st-margarets.com",
    "latitude": "41.32882400000",
    "longitude": "-89.19247200000"
  },
  {
    "name": "SAINTS MARY AND ELIZABETH MEDICAL CENTER",
    "name2": "D/B/A SAINT MARY OF NAZARETH HOSPITAL",
    "address": "2233 WEST DIVISION STREET",
    "address_2": "",
    "city": "CHICAGO",
    "state": "IL",
    "zip_code": "60622",
    "description": "General Hospital",
    "website": "",
    "latitude": "41.90287400000",
    "longitude": "-87.68298200000"
  },
  {
    "name": "ST. MARY'S HOSPITAL",
    "name2": "",
    "address": "1800 EAST LAKE SHORE DRIVE",
    "address_2": "",
    "city": "DECATUR",
    "state": "IL",
    "zip_code": "62521",
    "description": "General Hospital",
    "website": "www.stmarys-hospital.com",
    "latitude": "39.82649600000",
    "longitude": "-88.93219500000"
  },
  {
    "name": "ST. MARY'S HOSPITAL",
    "name2": "",
    "address": "400 NORTH PLEASANT AVENUE",
    "address_2": "",
    "city": "CENTRALIA",
    "state": "IL",
    "zip_code": "62801",
    "description": "General Hospital",
    "website": "www.smgsi.com/internet/home/goodsam.nsf",
    "latitude": "38.53076700000",
    "longitude": "-89.11605600000"
  },
  {
    "name": "ST. MARY'S HOSPITAL",
    "name2": "",
    "address": "111 EAST SPRING STREET",
    "address_2": "",
    "city": "STREATOR",
    "state": "IL",
    "zip_code": "61364",
    "description": "General Hospital",
    "website": "www.stmaryshospital.org",
    "latitude": "41.11398800000",
    "longitude": "-88.83542700000"
  },
  {
    "name": "KENNETH HALL REGIONAL HOSPITAL",
    "name2": "",
    "address": "129 NORTH 8TH STREET",
    "address_2": "",
    "city": "EAST ST. LOUIS",
    "state": "IL",
    "zip_code": "62201",
    "description": "General Hospital",
    "website": "",
    "latitude": "38.62258100000",
    "longitude": "-90.15748600000"
  },
  {
    "name": "ST. MARY MEDICAL CENTER",
    "name2": "",
    "address": "3333 NORTH SEMINARY STREET",
    "address_2": "",
    "city": "GALESBURG",
    "state": "IL",
    "zip_code": "61401",
    "description": "General Hospital",
    "website": "www.osfstmary.org",
    "latitude": "40.98697500000",
    "longitude": "-90.36353800000"
  },
  {
    "name": "ST. VINCENT MEMORIAL HOSPITAL",
    "name2": "",
    "address": "201 EAST PLEASANT STREET",
    "address_2": "",
    "city": "TAYLORVILLE",
    "state": "IL",
    "zip_code": "62568",
    "description": "General Hospital",
    "website": "svmh.org",
    "latitude": "39.55401300000",
    "longitude": "-89.29379000000"
  },
  {
    "name": "SWEDISH COVENANT HOSPITAL",
    "name2": "",
    "address": "5145 NORTH CALIFORNIA AVENUE",
    "address_2": "",
    "city": "CHICAGO",
    "state": "IL",
    "zip_code": "60625",
    "description": "General Hospital",
    "website": "www.schosp.org",
    "latitude": "41.97512100000",
    "longitude": "-87.69865800000"
  },
  {
    "name": "SWEDISH AMERICAN HOSPITAL",
    "name2": "",
    "address": "1401 EAST STATE STREET",
    "address_2": "",
    "city": "ROCKFORD",
    "state": "IL",
    "zip_code": "61104",
    "description": "General Hospital",
    "website": "www.swedishamerican.org",
    "latitude": "42.26680600000",
    "longitude": "-89.07352700000"
  },
  {
    "name": "JOHN \u0026 MARY E. KIRBY HOSPITAL",
    "name2": "",
    "address": "1111 NORTH STATE STREET",
    "address_2": "",
    "city": "MONTICELLO",
    "state": "IL",
    "zip_code": "61856",
    "description": "Critical Access Hospital",
    "website": "www.kirbyhospital.org",
    "latitude": "40.03374300000",
    "longitude": "-88.57071600000"
  },
  {
    "name": "THOMAS H. BOYD MEMORIAL HOSPITAL",
    "name2": "",
    "address": "800 SCHOOL STREET",
    "address_2": "",
    "city": "CARROLLTON",
    "state": "IL",
    "zip_code": "62016",
    "description": "Critical Access Hospital",
    "website": "",
    "latitude": "39.29595400000",
    "longitude": "-90.41229400000"
  },
  {
    "name": "UNION COUNTY HOSPITAL DISTRICT",
    "name2": "",
    "address": "517 NORTH MAIN STREET",
    "address_2": "",
    "city": "ANNA",
    "state": "IL",
    "zip_code": "62906",
    "description": "General Hospital",
    "website": "www.unioncountyhospital.com",
    "latitude": "37.46490500000",
    "longitude": "-89.24533900000"
  },
  {
    "name": "VICTORY MEMORIAL HOSPITAL",
    "name2": "",
    "address": "1324 NORTH SHERIDAN ROAD",
    "address_2": "",
    "city": "WAUKEGAN",
    "state": "IL",
    "zip_code": "60085",
    "description": "General Hospital",
    "website": "www.vistahealth.com",
    "latitude": "42.37826800000",
    "longitude": "-87.83109000000"
  },
  {
    "name": "WABASH General Hospital DISTRICT",
    "name2": "",
    "address": "1418 COLLEGE DRIVE",
    "address_2": "",
    "city": "MOUNT CARMEL",
    "state": "IL",
    "zip_code": "62863",
    "description": "Critical Access Hospital",
    "website": "www.wabashgeneral.com",
    "latitude": "38.42142700000",
    "longitude": "-87.76848400000"
  },
  {
    "name": "WASHINGTON COUNTY HOSPITAL",
    "name2": "",
    "address": "705 SOUTH GRAND AVENUE",
    "address_2": "",
    "city": "NASHVILLE",
    "state": "IL",
    "zip_code": "62263",
    "description": "Critical Access Hospital",
    "website": "",
    "latitude": "38.33908800000",
    "longitude": "-89.39018600000"
  },
  {
    "name": "WESTLAKE HOSPITAL",
    "name2": "",
    "address": "1225 LAKE STREET",
    "address_2": "",
    "city": "MELROSE PARK",
    "state": "IL",
    "zip_code": "60160",
    "description": "General Hospital",
    "website": "www.reshealth.org",
    "latitude": "41.89172000000",
    "longitude": "-87.84828900000"
  },
  {
    "name": "MIDWESTERN REGIONAL MEDICAL CENTER",
    "name2": "",
    "address": "2520 ELISHA AVENUE",
    "address_2": "",
    "city": "ZION",
    "state": "IL",
    "zip_code": "60099",
    "description": "General Hospital",
    "website": "",
    "latitude": "42.44939100000",
    "longitude": "-87.82702800000"
  },
  {
    "name": "SHRINERS HOSPITAL FOR CRIPPLED CHILDREN",
    "name2": "",
    "address": "2211 NORTH OAK PARK AVENUE",
    "address_2": "",
    "city": "CHICAGO",
    "state": "IL",
    "zip_code": "60635",
    "description": "PEDIATRIC HOSPITAL",
    "website": "www.shrinershq.org/shc/chicago/index.html",
    "latitude": "41.92002200000",
    "longitude": "-87.79484900000"
  },
  {
    "name": "TRINITY MEDICAL CENTER (WEST)",
    "name2": "",
    "address": "2701 17TH STREET",
    "address_2": "",
    "city": "ROCK ISLAND",
    "state": "IL",
    "zip_code": "61201",
    "description": "General Hospital",
    "website": "www.trinityqc.com",
    "latitude": "41.48342300000",
    "longitude": "-90.57262600000"
  },
  {
    "name": "NORTHWESTERN MEMORIAL HOSPITAL",
    "name2": "",
    "address": "251 EAST HURON STREET",
    "address_2": "",
    "city": "CHICAGO",
    "state": "IL",
    "zip_code": "60611",
    "description": "General Hospital",
    "website": "www.nmh.org",
    "latitude": "41.89478600000",
    "longitude": "-87.62145200000"
  },
  {
    "name": "ADVOCATE-GOOD SAMARITAN HOSPITAL",
    "name2": "",
    "address": "3815 HIGHLAND AVENUE",
    "address_2": "",
    "city": "DOWNERS GROVE",
    "state": "IL",
    "zip_code": "60515",
    "description": "General Hospital",
    "website": "www.advocatehealth.com/gsam/",
    "latitude": "41.81965900000",
    "longitude": "-88.01010800000"
  },
  {
    "name": "ILLINOIS VALLEY COMMUNITY HOSPITAL",
    "name2": "",
    "address": "925 WEST STREET",
    "address_2": "",
    "city": "PERU",
    "state": "IL",
    "zip_code": "61354",
    "description": "General Hospital",
    "website": "www.ivch.org",
    "latitude": "41.32878600000",
    "longitude": "-89.12525200000"
  },
  {
    "name": "SOUTH SHORE HOSPITAL",
    "name2": "",
    "address": "8012 SOUTH CRANDON AVENUE",
    "address_2": "",
    "city": "CHICAGO",
    "state": "IL",
    "zip_code": "60617",
    "description": "General Hospital",
    "website": "www.southshorehospital.com",
    "latitude": "41.74964700000",
    "longitude": "-87.56877200000"
  },
  {
    "name": "GLENBROOK HOSPITAL",
    "name2": "",
    "address": "2100 PFINGSTEN ROAD",
    "address_2": "",
    "city": "GLENVIEW",
    "state": "IL",
    "zip_code": "60025",
    "description": "General Hospital",
    "website": "",
    "latitude": "42.08766000000",
    "longitude": "-87.84936100000"
  },
  {
    "name": "EUREKA COMMUNITY HOSPITAL",
    "name2": "",
    "address": "101 SOUTH MAJOR ST.",
    "address_2": "",
    "city": "EUREKA",
    "state": "IL",
    "zip_code": "61530",
    "description": "Critical Access Hospital",
    "website": "www.bromenn.com/eureka",
    "latitude": "40.72142800000",
    "longitude": "-89.27188200000"
  },
  {
    "name": "MERCER COUNTY HOSPITAL",
    "name2": "",
    "address": "409 NORTH WEST 9TH AVENUE",
    "address_2": "",
    "city": "ALEDO",
    "state": "IL",
    "zip_code": "61231",
    "description": "Critical Access Hospital",
    "website": "www.mercerhospital.org",
    "latitude": "41.20440800000",
    "longitude": "-90.75876600000"
  },
  {
    "name": "CARLE FOUNDATION HOSPITAL",
    "name2": "",
    "address": "611 WEST PARK STREET",
    "address_2": "",
    "city": "URBANA",
    "state": "IL",
    "zip_code": "61801",
    "description": "General Hospital",
    "website": "www.carle.com",
    "latitude": "40.11718000000",
    "longitude": "-88.21467400000"
  },
  {
    "name": "ADVENTIST GLENOAKS",
    "name2": "GLENOAKS HOSPITAL",
    "address": "701 WINTHROP AVENUE",
    "address_2": "",
    "city": "GLENDALE HEIGHTS",
    "state": "IL",
    "zip_code": "60139",
    "description": "General Hospital",
    "website": "www.ahsmidwest.org/Facilities/glenoaks/",
    "latitude": "41.91480400000",
    "longitude": "-88.06033900000"
  },
  {
    "name": "BETHANY HOSPITAL",
    "name2": "",
    "address": "3435 WEST VAN BUREN",
    "address_2": "",
    "city": "CHICAGO",
    "state": "IL",
    "zip_code": "60624",
    "description": "General Hospital",
    "website": "www.advocatehealth.com/beth/",
    "latitude": "41.87525600000",
    "longitude": "-87.71186200000"
  },
  {
    "name": "NORTHERN ILLINOIS MEDICAL CENTER",
    "name2": "",
    "address": "4201 MEDICAL CENTER DRIVE",
    "address_2": "",
    "city": "MC HENRY",
    "state": "IL",
    "zip_code": "60050",
    "description": "General Hospital",
    "website": "",
    "latitude": "42.31799100000",
    "longitude": "-88.27549500000"
  },
  {
    "name": "UNIVERSITY OF CHICAGO HOSPITALS",
    "name2": "",
    "address": "5841 SOUTH MARYLAND",
    "address_2": "MC 1112",
    "city": "CHICAGO",
    "state": "IL",
    "zip_code": "60637",
    "description": "General Hospital",
    "website": "www.uchospitals.edu",
    "latitude": "41.78842600000",
    "longitude": "-87.60460100000"
  },
  {
    "name": "EDWARD HOSPITAL",
    "name2": "",
    "address": "801 SOUTH WASHINGTON STREET",
    "address_2": "",
    "city": "NAPERVILLE",
    "state": "IL",
    "zip_code": "60566",
    "description": "General Hospital",
    "website": "www.edward.org",
    "latitude": "41.76139300000",
    "longitude": "-88.14933400000"
  },
  {
    "name": "CROSSROADS COMMUNITY HOSPITAL",
    "name2": "",
    "address": "8 DOCTORS PARK ROAD",
    "address_2": "",
    "city": "MOUNT VERNON",
    "state": "IL",
    "zip_code": "62864",
    "description": "General Hospital",
    "website": "www.crossroadscommunityhospital.com",
    "latitude": "38.31190800000",
    "longitude": "-88.93357400000"
  },
  {
    "name": "ILLINI HOSPITAL",
    "name2": "",
    "address": "801 HOSPITAL DRIVE",
    "address_2": "",
    "city": "SILVIS",
    "state": "IL",
    "zip_code": "61282",
    "description": "General Hospital",
    "website": "www.genesishealth.com",
    "latitude": "41.50021000000",
    "longitude": "-90.42269400000"
  },
  {
    "name": "SACRED HEART HOSPITAL",
    "name2": "",
    "address": "3240 WEST FRANKLIN BOULEVARD",
    "address_2": "",
    "city": "CHICAGO",
    "state": "IL",
    "zip_code": "60624",
    "description": "General Hospital",
    "website": "",
    "latitude": "41.89036400000",
    "longitude": "-87.70724200000"
  },
  {
    "name": "TRINITY HOSPITAL",
    "name2": "",
    "address": "2320 EAST 93RD STREET",
    "address_2": "",
    "city": "CHICAGO",
    "state": "IL",
    "zip_code": "60617",
    "description": "General Hospital",
    "website": "www.advocatehealth.com/trin/",
    "latitude": "41.72638000000",
    "longitude": "-87.56747300000"
  },
  {
    "name": "HOOPESTON COMMUNITY MEMORIAL HOSPITAL",
    "name2": "",
    "address": "701 EAST ORANGE STREET",
    "address_2": "",
    "city": "HOOPESTON",
    "state": "IL",
    "zip_code": "60942",
    "description": "Critical Access Hospital",
    "website": "www.hoopestonhospital.org",
    "latitude": "40.45948300000",
    "longitude": "-87.66197400000"
  },
  {
    "name": "SAINT CLARE'S HOSPITAL",
    "name2": "",
    "address": "915 EAST FIFTH STREET",
    "address_2": "",
    "city": "ALTON",
    "state": "IL",
    "zip_code": "62002",
    "description": "General Hospital",
    "website": "www.sahc.org",
    "latitude": "38.89092200000",
    "longitude": "-90.17122000000"
  },
  {
    "name": "BLESSING HOSPITAL AT 14TH STREET",
    "name2": "",
    "address": "1415 VERMONT STREET",
    "address_2": "",
    "city": "QUINCY",
    "state": "IL",
    "zip_code": "62301",
    "description": "General Hospital",
    "website": "www.blessinghospital.org",
    "latitude": "39.93441800000",
    "longitude": "-91.39018000000"
  },
  {
    "name": "TOUCHETTE REGIONAL HOSPITAL, INC.",
    "name2": "",
    "address": "5900 BOND AVENUE",
    "address_2": "",
    "city": "CENTREVILLE",
    "state": "IL",
    "zip_code": "62207",
    "description": "General Hospital",
    "website": "www.touchette.org",
    "latitude": "38.57316500000",
    "longitude": "-90.11006500000"
  },
  {
    "name": "PROVIDENT HOSPITAL OF COOK COUNTY",
    "name2": "",
    "address": "500 EAST 51ST STREET",
    "address_2": "",
    "city": "CHICAGO",
    "state": "IL",
    "zip_code": "60615",
    "description": "General Hospital",
    "website": "",
    "latitude": "41.80212800000",
    "longitude": "-87.61426100000"
  },
  {
    "name": "ST. ANTHONY HOSPITAL",
    "name2": "",
    "address": "2875 WEST 19TH STREET",
    "address_2": "",
    "city": "CHICAGO",
    "state": "IL",
    "zip_code": "60623",
    "description": "General Hospital",
    "website": "www.cath-health.org",
    "latitude": "41.85526200000",
    "longitude": "-87.69817400000"
  },
  {
    "name": "ST. JOSEPH MEMORIAL HOSPITAL",
    "name2": "",
    "address": "2 SOUTH HOSPITAL DRIVE",
    "address_2": "",
    "city": "MURPHYSBORO",
    "state": "IL",
    "zip_code": "62966",
    "description": "General Hospital",
    "website": "www.stjosephmemorialhospital.org",
    "latitude": "37.77346700000",
    "longitude": "-89.32628600000"
  },
  {
    "name": "LOYOLA UNIVERSITY MEDICAL CENTER",
    "name2": "FOSTER G. MCGAW HOSPITAL",
    "address": "2160 SOUTH 1ST AVENUE",
    "address_2": "",
    "city": "MAYWOOD",
    "state": "IL",
    "zip_code": "60153",
    "description": "General Hospital",
    "website": "",
    "latitude": "41.86510000000",
    "longitude": "-87.83353800000"
  },
  {
    "name": "RUSH COPLEY MEMORIAL HOSPITAL, INC.",
    "name2": "RUSH-COPLEY MEDICAL CENTER",
    "address": "2000 OGDEN AVENUE",
    "address_2": "",
    "city": "AURORA",
    "state": "IL",
    "zip_code": "60504",
    "description": "General Hospital",
    "website": "www.rushcopley.com",
    "latitude": "41.72780200000",
    "longitude": "-88.26851500000"
  },
  {
    "name": "VALLEY WEST COMMUNITY HOSPITAL",
    "name2": "",
    "address": "11 EAST PLEASANT AVENUE",
    "address_2": "",
    "city": "SANDWICH",
    "state": "IL",
    "zip_code": "60548",
    "description": "General Hospital",
    "website": "www.vwch.org",
    "latitude": "41.65656800000",
    "longitude": "-88.62177500000"
  },
  {
    "name": "ADVOCATE-SOUTH SUBURBAN HOSPITAL",
    "name2": "",
    "address": "17800 S. KEDZIE AVENUE",
    "address_2": "",
    "city": "HAZEL CREST",
    "state": "IL",
    "zip_code": "60429",
    "description": "General Hospital",
    "website": "www.advocatehealth.com/ssub/",
    "latitude": "41.56632100000",
    "longitude": "-87.69454700000"
  },
  {
    "name": "GOOD SAMARITAN REGIONAL HEALTH CENTER",
    "name2": "",
    "address": "605 NORTH 12TH STREET",
    "address_2": "",
    "city": "MOUNT VERNON",
    "state": "IL",
    "zip_code": "62864",
    "description": "General Hospital",
    "website": "",
    "latitude": "38.32236100000",
    "longitude": "-88.90998300000"
  },
  {
    "name": "RICHLAND MEMORIAL HOSPITAL",
    "name2": "",
    "address": "800 EAST LOCUST STREET",
    "address_2": "",
    "city": "OLNEY",
    "state": "IL",
    "zip_code": "62450",
    "description": "General Hospital",
    "website": "richlandmemorial.com",
    "latitude": "38.73518500000",
    "longitude": "-88.07692600000"
  },
  {
    "name": "ADVOCATE-LUTHERAN General Hospital",
    "name2": "",
    "address": "1775 DEMPSTER STREET",
    "address_2": "",
    "city": "PARK RIDGE",
    "state": "IL",
    "zip_code": "60068",
    "description": "General Hospital",
    "website": "www.advocatehealth.com/luth/",
    "latitude": "42.03951700000",
    "longitude": "-87.84880800000"
  },
  {
    "name": "NORTHWEST SUBURBAN COMMUNITY HOSPITAL",
    "name2": "",
    "address": "1625 SOUTH STATE STREET",
    "address_2": "",
    "city": "BELVIDERE",
    "state": "IL",
    "zip_code": "61008",
    "description": "General Hospital",
    "website": "",
    "latitude": "42.24318500000",
    "longitude": "-88.83931600000"
  },
  {
    "name": "PROVENA HOSPITALS",
    "name2": "D/B/A SAINT JOSEPH MEDICAL CENTER",
    "address": "333 NORTH MADISON STREET",
    "address_2": "",
    "city": "JOLIET",
    "state": "IL",
    "zip_code": "60435",
    "description": "General Hospital",
    "website": "www.provenasaintjoe.org",
    "latitude": "41.52800700000",
    "longitude": "-88.13484700000"
  },
  {
    "name": "PROVENA HOSPITALS",
    "name2": "D/B/A UNITED SAMARITANS MEDICAL CENTER-LOGAN",
    "address": "812 NORTH LOGAN AVENUE",
    "address_2": "",
    "city": "DANVILLE",
    "state": "IL",
    "zip_code": "61832",
    "description": "General Hospital",
    "website": "",
    "latitude": "40.13725300000",
    "longitude": "-87.64514700000"
  },
  {
    "name": "PROVENA HOSPITALS",
    "name2": "D/B/A SAINT MARYS HOSPITAL",
    "address": "500 WEST COURT STREET",
    "address_2": "",
    "city": "KANKAKEE",
    "state": "IL",
    "zip_code": "60901",
    "description": "General Hospital",
    "website": "www.provenastmarys.com",
    "latitude": "41.12103100000",
    "longitude": "-87.87184000000"
  },
  {
    "name": "PROVENA HOSPITALS",
    "name2": "D/B/A SAINT JOSEPH HOSPITAL",
    "address": "77 NORTH AIRLITE STREET",
    "address_2": "",
    "city": "ELGIN",
    "state": "IL",
    "zip_code": "60123",
    "description": "General Hospital",
    "website": "www.provenasaintjoseph.com",
    "latitude": "42.03537000000",
    "longitude": "-88.32838500000"
  },
  {
    "name": "PROVENA HOSPITALS",
    "name2": "D/B/A SAINT THERESE MEDICAL CENTER",
    "address": "2615 WASHINGTON STREET",
    "address_2": "",
    "city": "WAUKEGAN",
    "state": "IL",
    "zip_code": "60085",
    "description": "General Hospital",
    "website": "",
    "latitude": "42.35923400000",
    "longitude": "-87.86670000000"
  },
  {
    "name": "PROVENA MERCY CENTER",
    "name2": "",
    "address": "1325 NORTH HIGHLAND AVENUE",
    "address_2": "",
    "city": "AURORA",
    "state": "IL",
    "zip_code": "60506",
    "description": "General Hospital",
    "website": "",
    "latitude": "41.78469400000",
    "longitude": "-88.32866500000"
  },
  {
    "name": "MERCY HARVARD HOSPITAL, INC.",
    "name2": "",
    "address": "901 SOUTH GRANT STREET",
    "address_2": "P.O. BOX 850",
    "city": "HARVARD",
    "state": "IL",
    "zip_code": "60033",
    "description": "General Hospital",
    "website": "www.harvardhospital.org",
    "latitude": "42.42572900000",
    "longitude": "-88.60756800000"
  },
  {
    "name": "COMMUNITY MEDICAL CENTER OF",
    "name2": "WESTERN ILLINOIS, INC.",
    "address": "1000 WEST HARLEM AVENUE",
    "address_2": "",
    "city": "MONMOUTH",
    "state": "IL",
    "zip_code": "61462",
    "description": "Critical Access Hospital",
    "website": "www.cmchospital.com",
    "latitude": "40.92137500000",
    "longitude": "-90.65899100000"
  },
  {
    "name": "MICHAEL REESE MEDICAL CENTER CORP",
    "name2": "D/B/A MICHAEL REESE HOSP \u0026 MED CTR",
    "address": "2929 S.ELLIS AVENUE",
    "address_2": "",
    "city": "CHICAGO",
    "state": "IL",
    "zip_code": "60616",
    "description": "General Hospital",
    "website": "",
    "latitude": "41.84251600000",
    "longitude": "-87.61390600000"
  },
  {
    "name": "ST. ALEXIUS MEDICAL CENTER",
    "name2": "",
    "address": "1555 BARRINGTON ROAD",
    "address_2": "",
    "city": "HOFFMAN ESTATES",
    "state": "IL",
    "zip_code": "60194",
    "description": "General Hospital",
    "website": "www.stalexius.org",
    "latitude": "42.05414500000",
    "longitude": "-88.14419800000"
  },
  {
    "name": "ADVENTIST HEALTH SYSTEM SUNBELT, INC.",
    "name2": "D/B/A LA GRANGE MEMORIAL HOSPITAL",
    "address": "5101 SOUTH WILLOW SPRINGS ROAD",
    "address_2": "",
    "city": "LA GRANGE",
    "state": "IL",
    "zip_code": "60525",
    "description": "General Hospital",
    "website": "www.ahsmidwest.org/Facilities/lagrange/",
    "latitude": "41.79813900000",
    "longitude": "-87.88830300000"
  },
  {
    "name": "HIGHLAND PARK HOSPITAL",
    "name2": "",
    "address": "718 GLENVIEW AVENUE",
    "address_2": "",
    "city": "HIGHLAND PARK",
    "state": "IL",
    "zip_code": "60035",
    "description": "General Hospital",
    "website": "",
    "latitude": "42.19089900000",
    "longitude": "-87.80664400000"
  },
  {
    "name": "SISTERS OF ST. FRANCIS HLTH SVS, INC.",
    "name2": "D/B/A ST. JAMES \u0026 HLTH CTR-OLYMPIA FLDS",
    "address": "20201 S. CRAWFORD",
    "address_2": "",
    "city": "OLYMPIA FIELDS",
    "state": "IL",
    "zip_code": "60461",
    "description": "General Hospital",
    "website": "",
    "latitude": "41.52249800000",
    "longitude": "-87.71306000000"
  },
  {
    "name": "VHS OF ILLINOIS",
    "name2": "D/B/A MACNEAL HOSPITAL",
    "address": "3249 SOUTH OAK PARK AVENUE",
    "address_2": "",
    "city": "BERWYN",
    "state": "IL",
    "zip_code": "60402",
    "description": "General Hospital",
    "website": "",
    "latitude": "41.83320300000",
    "longitude": "-87.79261400000"
  },
  {
    "name": "CORNERSTONE HEALTHCARE OF ILLINOIS, INC",
    "name2": "",
    "address": "400 PLUM STREET",
    "address_2": "",
    "city": "CARMI",
    "state": "IL",
    "zip_code": "62821",
    "description": "Critical Access Hospital",
    "website": "",
    "latitude": "38.08337500000",
    "longitude": "-88.16561900000"
  },
  {
    "name": "ST. FRANCIS HOSPITAL AND HEALTH CENTER",
    "name2": "",
    "address": "12935 SOUTH GREGORY STREET",
    "address_2": "",
    "city": "BLUE ISLAND",
    "state": "IL",
    "zip_code": "60406",
    "description": "General Hospital",
    "website": "www.stfrancisblueisland.com",
    "latitude": "41.65811300000",
    "longitude": "-87.67798700000"
  },
  {
    "name": "BLESSING CARE CORPORATION",
    "name2": "D/B/A ILLINI COMMUNITY HOSPITAL",
    "address": "640 WEST WASHINGTON STREET",
    "address_2": "",
    "city": "PITTSFIELD",
    "state": "IL",
    "zip_code": "62363",
    "description": "Critical Access Hospital",
    "website": "",
    "latitude": "39.60693000000",
    "longitude": "-90.81477200000"
  },
  {
    "name": "TRINITY MEDICAL CENTER",
    "name2": "",
    "address": "500 JOHN DEERE ROAD",
    "address_2": "7TH STREET CAMPUS",
    "city": "MOLINE",
    "state": "IL",
    "zip_code": "61265",
    "description": "General Hospital",
    "website": "www.trinityqc.com",
    "latitude": "41.47063100000",
    "longitude": "-90.52952300000"
  },
  {
    "name": "ADVOCATE-NORTHSIDE HEALTH NETWORK",
    "name2": "D/B/A ILLINOIS MASONIC MED CTR CAMPUS",
    "address": "836 WEST WELLINGTON AVENUE",
    "address_2": "",
    "city": "CHICAGO",
    "state": "IL",
    "zip_code": "60657",
    "description": "General Hospital",
    "website": "",
    "latitude": "41.93635900000",
    "longitude": "-87.65000800000"
  },
  {
    "name": "SAINT JOSEPH HOSPITAL",
    "name2": "",
    "address": "2900 NORTH LAKE SHORE DRIVE",
    "address_2": "",
    "city": "CHICAGO",
    "state": "IL",
    "zip_code": "60657",
    "description": "General Hospital",
    "website": "www.reshealth.org/default.cfm",
    "latitude": "41.93462600000",
    "longitude": "-87.63687000000"
  },
  {
    "name": "RED BUD ILLINOIS HOSPITAL COMPANY, LLC",
    "name2": "D/B/A RED BUD REGIONAL HOSPITAL",
    "address": "325 SPRING STREET",
    "address_2": "",
    "city": "RED BUD",
    "state": "IL",
    "zip_code": "62278",
    "description": "General Hospital",
    "website": "",
    "latitude": "38.20936400000",
    "longitude": "-89.99625100000"
  },
  {
    "name": "GRANITE CITY ILLINOIS HOSP COMPANY, LLC",
    "name2": "D/B/A GATEWAY REGIONAL MEDICAL CENTER",
    "address": "2100 MADISON AVENUE",
    "address_2": "",
    "city": "GRANITE CITY",
    "state": "IL",
    "zip_code": "62040",
    "description": "General Hospital",
    "website": "",
    "latitude": "38.70076700000",
    "longitude": "-90.14481900000"
  },
  {
    "name": "FRANKLIN HOSPITAL",
    "name2": "",
    "address": "201 BAILEY LANE",
    "address_2": "",
    "city": "BENTON",
    "state": "IL",
    "zip_code": "62812",
    "description": "Critical Access Hospital",
    "website": "",
    "latitude": "38.00924700000",
    "longitude": "-88.91983400000"
  },
  {
    "name": "VHS ACQUISITION SUBSIDIARY NUMBER 3, INC",
    "name2": "D/B/A LOUIS A. WEISS MEMORIAL HOSPITAL",
    "address": "4646 N. MARINE DRIVE",
    "address_2": "",
    "city": "CHICAGO",
    "state": "IL",
    "zip_code": "60640",
    "description": "General Hospital",
    "website": "",
    "latitude": "41.96639000000",
    "longitude": "-87.64905300000"
  },
  {
    "name": "MERIT LINCOLN PARK, LLC",
    "name2": "D/B/A LINCOLN PARK HOSPITAL",
    "address": "550 WEST WEBSTER AVENUE",
    "address_2": "",
    "city": "CHICAGO",
    "state": "IL",
    "zip_code": "60614",
    "description": "General Hospital",
    "website": "",
    "latitude": "41.92192200000",
    "longitude": "-87.64263400000"
  },
  {
    "name": "JOHN H. STROGER, JR HOSPITAL",
    "name2": "HOSPITAL OF COOK COUNTY",
    "address": "1901 WEST HARRISON STREET",
    "address_2": "",
    "city": "CHICAGO",
    "state": "IL",
    "zip_code": "60612",
    "description": "General Hospital",
    "website": "",
    "latitude": "41.87388300000",
    "longitude": "-87.67381900000"
  },
  {
    "name": "UNIVERSITY OF ILLINIOS HOSPITAL",
    "name2": "",
    "address": "1740 WEST TAYLOR, SUITE 1400",
    "address_2": "",
    "city": "CHICAGO",
    "state": "IL",
    "zip_code": "60612",
    "description": "General Hospital",
    "website": "www.uillinoismedcenter.org",
    "latitude": "41.86926900000",
    "longitude": "-87.66977400000"
  },
  {
    "name": "MARION HOSPITAL CORPORATION",
    "name2": "D/B/A HEARTLAND REGIONAL MEDICAL CENTER",
    "address": "3333 WEST DE YOUNG STREET",
    "address_2": "",
    "city": "MARION",
    "state": "IL",
    "zip_code": "62959",
    "description": "General Hospital",
    "website": "",
    "latitude": "37.74483000000",
    "longitude": "-88.98662800000"
  },
  {
    "name": "SAINTS MARY AND ELIZABETH MEDICAL CENTER",
    "name2": "D/B/A SAINT ELIZABETH HOSPITAL",
    "address": "1431 NORTH CLAREMONT AVENUE",
    "address_2": "",
    "city": "CHICAGO",
    "state": "IL",
    "zip_code": "60622",
    "description": "General Hospital",
    "website": "",
    "latitude": "41.90715100000",
    "longitude": "-87.68560900000"
  },
  {
    "name": "CRAWFORD MEMORIAL HOSPITAL",
    "name2": "",
    "address": "1000 N. ALLEN STREET",
    "address_2": "P. O. BOX 151",
    "city": "ROBINSON",
    "state": "IL",
    "zip_code": "62454",
    "description": "General Hospital",
    "website": "www.crawfordmh.com",
    "latitude": "39.01323400000",
    "longitude": "-87.74901000000"
  },
  {
    "name": "MARSHALL BROWNING HOSPITAL",
    "name2": "",
    "address": "900 NO.WASHINGTON ST.",
    "address_2": "P.O. BOX 192",
    "city": "DU QUOIN",
    "state": "IL",
    "zip_code": "62832",
    "description": "Critical Access Hospital",
    "website": "",
    "latitude": "38.02407400000",
    "longitude": "-89.23678400000"
  },
  {
    "name": "MEMORIAL MEDICAL CENTER",
    "name2": "",
    "address": "701 N. FIRST STREET",
    "address_2": "",
    "city": "SPRINGFIELD",
    "state": "IL",
    "zip_code": "62781",
    "description": "General Hospital",
    "website": "www.memorialmedical.com",
    "latitude": "39.80956800000",
    "longitude": "-89.65601000000"
  },
  {
    "name": "MEMORIAL HOSPITAL",
    "name2": "",
    "address": "402 SOUTH ADAMS STREET",
    "address_2": "P. O. BOX 160",
    "city": "CARTHAGE",
    "state": "IL",
    "zip_code": "62321",
    "description": "Critical Access Hospital",
    "website": "www.mhtlc.com",
    "latitude": "40.40926800000",
    "longitude": "-91.13440700000"
  },
  {
    "name": "METHODIST MEDICAL CENTER OF ILLINOIS",
    "name2": "",
    "address": "221 NORTHEAST GLEN OAK",
    "address_2": "",
    "city": "PEORIA",
    "state": "IL",
    "zip_code": "61636",
    "description": "General Hospital",
    "website": "www.mmci.org",
    "latitude": "40.70068000000",
    "longitude": "-89.59549600000"
  },
  {
    "name": "PASSAVANT AREA HOSPITAL",
    "name2": "",
    "address": "1600 WEST WALNUT STREET",
    "address_2": "",
    "city": "JACKSONVILLE",
    "state": "IL",
    "zip_code": "62650",
    "description": "General Hospital",
    "website": "www.passavanthospital.com",
    "latitude": "39.74538600000",
    "longitude": "-90.25845500000"
  },
  {
    "name": "SPARTA COMMUNITY HOSPITAL",
    "name2": "",
    "address": "818 EAST BROADWAY",
    "address_2": "P. O. BOX 297",
    "city": "SPARTA",
    "state": "IL",
    "zip_code": "62286",
    "description": "General Hospital",
    "website": "www.spartahospital.com",
    "latitude": "38.12436900000",
    "longitude": "-89.69153200000"
  },
  {
    "name": "SAINT FRANCIS MEDICAL CENTER",
    "name2": "",
    "address": "530 NORTH EAST GLEN OAK AVENUE",
    "address_2": "",
    "city": "PEORIA",
    "state": "IL",
    "zip_code": "61637",
    "description": "General Hospital",
    "website": "www.osfsaintfrancis.org",
    "latitude": "40.70177000000",
    "longitude": "-89.59124100000"
  },
  {
    "name": "CHILDREN'S MEMORIAL HOSPITAL",
    "name2": "",
    "address": "2300 CHILDRENS PLAZA",
    "address_2": "",
    "city": "CHICAGO",
    "state": "IL",
    "zip_code": "60614",
    "description": "PEDIATRIC HOSPITAL",
    "website": "www.childmmc.edu",
    "latitude": "41.92475800000",
    "longitude": "-87.64711500000"
  },
  {
    "name": "BLESSING HOSPITAL AT 11TH STREET",
    "name2": "",
    "address": "BROADWAY AT 11TH STREET",
    "address_2": "",
    "city": "QUINCY",
    "state": "IL",
    "zip_code": "62301",
    "description": "General Hospital",
    "website": "www.blessinghospital.org",
    "latitude": "39.93678900000",
    "longitude": "-91.39923100000"
  },
  {
    "name": "CENTRAL DUPAGE HOSPITAL",
    "name2": "",
    "address": "25 NORTH WINFIELD ROAD",
    "address_2": "",
    "city": "WINFIELD",
    "state": "IL",
    "zip_code": "60190",
    "description": "General Hospital",
    "website": "www.cdh.org",
    "latitude": "41.87203600000",
    "longitude": "-88.15749200000"
  },
  {
    "name": "CLAY COUNTY HOSPITAL",
    "name2": "",
    "address": "911 STACY BURK DRIVE",
    "address_2": "",
    "city": "FLORA",
    "state": "IL",
    "zip_code": "62839",
    "description": "General Hospital",
    "website": "www.bjc.org/cch.html",
    "latitude": "38.67505300000",
    "longitude": "-88.48360800000"
  },
  {
    "name": "MT. SINAI HOSPITAL MEDICAL CENTER",
    "name2": "",
    "address": "CALIFORNIA AT 15TH STREET",
    "address_2": "",
    "city": "CHICAGO",
    "state": "IL",
    "zip_code": "60608",
    "description": "General Hospital",
    "website": "www.sinai.org",
    "latitude": "41.86085600000",
    "longitude": "-87.69448100000"
  },
  {
    "name": "SAINT ANTHONY'S HOSPITAL",
    "name2": "",
    "address": "SAINT ANTHONY'S WAY",
    "address_2": "",
    "city": "ALTON",
    "state": "IL",
    "zip_code": "62002",
    "description": "General Hospital",
    "website": "www.sahc.org",
    "latitude": "38.90748100000",
    "longitude": "-90.17360300000"
  },
  {
    "name": "ST. JOHN'S HOSPITAL",
    "name2": "",
    "address": "800 EAST CARPENTER",
    "address_2": "",
    "city": "SPRINGFIELD",
    "state": "IL",
    "zip_code": "62769",
    "description": "General Hospital",
    "website": "www.st-johns.org",
    "latitude": "39.80569400000",
    "longitude": "-89.64447500000"
  },
  {
    "name": "WEST SUBURBAN HOSPITAL MEDICAL CENTER",
    "name2": "",
    "address": "ERIE AT AUSTIN",
    "address_2": "",
    "city": "OAK PARK",
    "state": "IL",
    "zip_code": "60302",
    "description": "General Hospital",
    "website": "www.westsub.com",
    "latitude": "41.89227800000",
    "longitude": "-87.77535600000"
  },
  {
    "name": "LA RABIDA CHILDREN'S HOSPITAL",
    "name2": "",
    "address": "EAST 65TH AT LAKE MICHIGAN",
    "address_2": "",
    "city": "CHICAGO",
    "state": "IL",
    "zip_code": "60649",
    "description": "PEDIATRIC HOSPITAL",
    "website": "www.larabida.org",
    "latitude": "41.77794700000",
    "longitude": "-87.57131900000"
  },
  {
    "name": "KISHWAUKEE COMMUNITY HOSPITAL",
    "name2": "",
    "address": "626 BETHANY ROAD",
    "address_2": "",
    "city": "DEKALB",
    "state": "IL",
    "zip_code": "60115",
    "description": "General Hospital",
    "website": "www.kishhospital.org",
    "latitude": "41.96473100000",
    "longitude": "-88.73395300000"
  },
  {
    "name": "ANDERSON HOSPITAL",
    "name2": "",
    "address": "6800 STATE ROUTE 162",
    "address_2": "",
    "city": "MARYVILLE",
    "state": "IL",
    "zip_code": "62062",
    "description": "General Hospital",
    "website": "www.andersonhospital.org",
    "latitude": "38.73678600000",
    "longitude": "-89.94688100000"
  },
  {
    "name": "BROMENN REGIONAL MEDICAL CENTER",
    "name2": "",
    "address": "VIRGINIA AT FRANKLIN",
    "address_2": "",
    "city": "NORMAL",
    "state": "IL",
    "zip_code": "61761",
    "description": "General Hospital",
    "website": "www.bromenn.com/bromennregional",
    "latitude": "40.49736100000",
    "longitude": "-88.99037800000"
  },
  {
    "name": "MEMORIAL HOSPITAL OF CARBONDALE",
    "name2": "",
    "address": "405 WEST JACKSON",
    "address_2": "P. O. BOX 10,000",
    "city": "CARBONDALE",
    "state": "IL",
    "zip_code": "62902",
    "description": "General Hospital",
    "website": "www.memorialhospitalofcarbondale.org",
    "latitude": "37.72776300000",
    "longitude": "-89.22053000000"
  },
  {
    "name": "MEMORIAL MEDICAL CENTER",
    "name2": "",
    "address": "ROUTE 14 AND DOTY ROAD",
    "address_2": "",
    "city": "WOODSTOCK",
    "state": "IL",
    "zip_code": "60098",
    "description": "General Hospital",
    "website": "www.centegra.org",
    "latitude": "42.27539500000",
    "longitude": "-88.39912600000"
  },
  {
    "name": "HARDIN COUNTY General Hospital",
    "name2": "",
    "address": "FERRELL ROAD",
    "address_2": "",
    "city": "ROSICLARE",
    "state": "IL",
    "zip_code": "62982",
    "description": "Critical Access Hospital",
    "website": "",
    "latitude": "37.42228600000",
    "longitude": "-88.35150300000"
  },
  {
    "name": "PALOS COMMUNITY HOSPITAL",
    "name2": "",
    "address": "12251 SOUTH 80TH AVENUE",
    "address_2": "",
    "city": "PALOS HEIGHTS",
    "state": "IL",
    "zip_code": "60463",
    "description": "General Hospital",
    "website": "www.paloscommunityhospital.org",
    "latitude": "41.66846500000",
    "longitude": "-87.81588600000"
  },
  {
    "name": "SARAH BUSH LINCOLN HEALTH CENTER",
    "name2": "",
    "address": "1000 HEALTH CENTER DRIVE",
    "address_2": "P. O. BOX 372",
    "city": "MATTOON",
    "state": "IL",
    "zip_code": "61938",
    "description": "General Hospital",
    "website": "www.sarahbush.org",
    "latitude": "39.49000100000",
    "longitude": "-88.27333200000"
  },
  {
    "name": "ADVOCATE-HEALTH AND HOSPITALS CORP",
    "name2": "D/B/A GOOD SHEPHERD HOSPITAL-ADVOCATE",
    "address": "450 WEST HIGHWAY 22",
    "address_2": "",
    "city": "BARRINGTON",
    "state": "IL",
    "zip_code": "60010",
    "description": "General Hospital",
    "website": "www.advocatehealth.com/gshp/",
    "latitude": "42.19681800000",
    "longitude": "-88.17683900000"
  },
  {
    "name": "DELNOR COMMUNITY HOSPITAL",
    "name2": "",
    "address": "300 RANDALL ROAD",
    "address_2": "",
    "city": "GENEVA",
    "state": "IL",
    "zip_code": "60134",
    "description": "General Hospital",
    "website": "www.delnor.com",
    "latitude": "41.88721300000",
    "longitude": "-88.34231300000"
  },
  {
    "name": "FERRELL HOSPITAL COMMUNITY FOUNDATION",
    "name2": "D/B/A FERRELL HOSPITAL",
    "address": "1201 PINE STREET",
    "address_2": "",
    "city": "ELDORADO",
    "state": "IL",
    "zip_code": "62930",
    "description": "Critical Access Hospital",
    "website": "www.sih.net/home.nsf/content/aboutsih",
    "latitude": "37.81525600000",
    "longitude": "-88.44156200000"
  },
  {
    "name": "SAINT JAMES HOSPITAL",
    "name2": "",
    "address": "2500 WEST REYNOLDS STREET",
    "address_2": "",
    "city": "PONTIAC",
    "state": "IL",
    "zip_code": "61764",
    "description": "General Hospital",
    "website": "www.osfsaintjames.org",
    "latitude": "40.87203900000",
    "longitude": "-88.67467900000"
  },
  {
    "name": "ABRAHAM LINCOLN MEMORIAL HOSPITAL",
    "name2": "",
    "address": "315 EIGHTH STREET",
    "address_2": "",
    "city": "LINCOLN",
    "state": "IL",
    "zip_code": "62656",
    "description": "Critical Access Hospital",
    "website": "www.almh.org",
    "latitude": "40.15017300000",
    "longitude": "-89.37138200000"
  },
  {
    "name": "ALTON MEMORIAL HOSPITAL",
    "name2": "",
    "address": "ONE MEMORIAL DRIVE",
    "address_2": "",
    "city": "ALTON",
    "state": "IL",
    "zip_code": "62002",
    "description": "General Hospital",
    "website": "www.altonmemorialhospital.org",
    "latitude": "38.89695900000",
    "longitude": "-90.15836000000"
  },
  {
    "name": "THOREK MEMORIAL HOSPITAL",
    "name2": "THOREK HOSPITAL \u0026 MEDICAL CENTER",
    "address": "850 WEST IRVING PARK ROAD",
    "address_2": "",
    "city": "CHICAGO",
    "state": "IL",
    "zip_code": "60613",
    "description": "General Hospital",
    "website": "www.thorek.org",
    "latitude": "41.95453100000",
    "longitude": "-87.65087300000"
  },
  {
    "name": "METHODIST HOSPITAL OF CHICAGO",
    "name2": "",
    "address": "5025 NORTH PAULINA STREET",
    "address_2": "",
    "city": "CHICAGO",
    "state": "IL",
    "zip_code": "60640",
    "description": "General Hospital",
    "website": "www.methodistchicago.org",
    "latitude": "41.97321100000",
    "longitude": "-87.67093200000"
  },
  {
    "name": "CARLINVILLE AREA HOSPITAL",
    "name2": "",
    "address": "1001 EAST MORGAN STREET",
    "address_2": "",
    "city": "CARLINVILLE",
    "state": "IL",
    "zip_code": "62626",
    "description": "General Hospital",
    "website": "www.carlinville.com/hospital.html",
    "latitude": "39.28220400000",
    "longitude": "-89.87024200000"
  },
  {
    "name": "ADVOCATE-CHRIST HOSPITAL AND MEDICAL CENTER",
    "name2": "",
    "address": "4440 W. 95TH STREET",
    "address_2": "",
    "city": "OAK LAWN",
    "state": "IL",
    "zip_code": "60453",
    "description": "General Hospital",
    "website": "www.advocatehealth.com/cmc/",
    "latitude": "41.72035300000",
    "longitude": "-87.73240600000"
  },
  {
    "name": "CGH MEDICAL CENTER",
    "name2": "",
    "address": "100 EAST LEFEVRE ROAD",
    "address_2": "",
    "city": "STERLING",
    "state": "IL",
    "zip_code": "61081",
    "description": "General Hospital",
    "website": "www.cghmc.com",
    "latitude": "41.80186500000",
    "longitude": "-89.69718600000"
  },
  {
    "name": "COMMUNITY MEMORIAL HOSPITAL",
    "name2": "",
    "address": "400 CALDWELL",
    "address_2": "",
    "city": "STAUNTON",
    "state": "IL",
    "zip_code": "62088",
    "description": "Critical Access Hospital",
    "website": "",
    "latitude": "39.01509200000",
    "longitude": "-89.78972000000"
  },
  {
    "name": "CONDELL MEDICAL CENTER",
    "name2": "",
    "address": "801 S. MILWAUKEE AVENUE",
    "address_2": "",
    "city": "LIBERTYVILLE",
    "state": "IL",
    "zip_code": "60048",
    "description": "General Hospital",
    "website": "www.condell.org",
    "latitude": "42.26981400000",
    "longitude": "-87.95698500000"
  },
  {
    "name": "DECATUR MEMORIAL HOSPITAL",
    "name2": "",
    "address": "2300 N. EDWARD STREET",
    "address_2": "",
    "city": "DECATUR",
    "state": "IL",
    "zip_code": "62526",
    "description": "General Hospital",
    "website": "www.dmhhs.com",
    "latitude": "39.86556000000",
    "longitude": "-88.96058800000"
  },
  {
    "name": "KATHERINE SHAW BETHEA HOSPITAL",
    "name2": "",
    "address": "403 EAST FIRST STREET",
    "address_2": "",
    "city": "DIXON",
    "state": "IL",
    "zip_code": "61021",
    "description": "General Hospital",
    "website": "www.ksbhospital.com",
    "latitude": "41.84466500000",
    "longitude": "-89.47832800000"
  },
  {
    "name": "HARRISBURG MEDICAL CENTER INC.",
    "name2": "",
    "address": "100 HOSPITAL DRIVE",
    "address_2": "P. O. BOX 428",
    "city": "HARRISBURG",
    "state": "IL",
    "zip_code": "62946",
    "description": "General Hospital",
    "website": "www.harrisburgmedicalcenter.com",
    "latitude": "37.73115400000",
    "longitude": "-88.52486700000"
  },
  {
    "name": "GREENVILLE REGIONAL HOSPITAL",
    "name2": "",
    "address": "200 HEALTHCARE DRIVE",
    "address_2": "",
    "city": "GREENVILLE",
    "state": "IL",
    "zip_code": "62246",
    "description": "General Hospital",
    "website": "www.utlaut.com/Hospital/index.htm",
    "latitude": "38.90233000000",
    "longitude": "-89.40850500000"
  },
  {
    "name": "EVANSTON HOSPITAL",
    "name2": "",
    "address": "2650 RIDGE AVENUE",
    "address_2": "",
    "city": "EVANSTON",
    "state": "IL",
    "zip_code": "60201",
    "description": "General Hospital",
    "website": "www.enh.org",
    "latitude": "42.06534500000",
    "longitude": "-87.68333000000"
  },
  {
    "name": "FAIRFIELD MEMORIAL HOSPITAL",
    "name2": "",
    "address": "303 N.W. 11TH STREET",
    "address_2": "",
    "city": "FAIRFIELD",
    "state": "IL",
    "zip_code": "62837",
    "description": "Critical Access Hospital",
    "website": "www.fairfieldmemorial.org",
    "latitude": "38.38153800000",
    "longitude": "-88.37457500000"
  },
  {
    "name": "FAYETTE COUNTY HOSPITAL",
    "name2": "",
    "address": "7TH \u0026 TAYLOR STREET",
    "address_2": "",
    "city": "VANDALIA",
    "state": "IL",
    "zip_code": "62471",
    "description": "General Hospital",
    "website": "www.bjc.org/fch.html",
    "latitude": "38.97059500000",
    "longitude": "-89.09879200000"
  },
  {
    "name": "FREEPORT MEMORIAL HOSPITAL",
    "name2": "",
    "address": "1045 WEST STEPHENSON",
    "address_2": "",
    "city": "FREEPORT",
    "state": "IL",
    "zip_code": "61032",
    "description": "General Hospital",
    "website": "",
    "latitude": "42.29585500000",
    "longitude": "-89.63788600000"
  },
  {
    "name": "GALENA-STAUSS HOSPITAL",
    "name2": "",
    "address": "215 SUMMIT STREET",
    "address_2": "",
    "city": "GALENA",
    "state": "IL",
    "zip_code": "61036",
    "description": "Critical Access Hospital",
    "website": "www.galenahealth.org",
    "latitude": "42.42256000000",
    "longitude": "-90.43662700000"
  },
  {
    "name": "GALESBURG COTTAGE HOSPITAL",
    "name2": "",
    "address": "695 NORTH KELLOGG STREET",
    "address_2": "",
    "city": "GALESBURG",
    "state": "IL",
    "zip_code": "61402",
    "description": "General Hospital",
    "website": "www.cottagehospital.com",
    "latitude": "40.95586400000",
    "longitude": "-90.36596200000"
  },
  {
    "name": "GIBSON COMMUNITY HOSPITAL",
    "name2": "",
    "address": "1120 N. MELVIN STREET",
    "address_2": "",
    "city": "GIBSON CITY",
    "state": "IL",
    "zip_code": "60936",
    "description": "Critical Access Hospital",
    "website": "www.gibsonhospital.org",
    "latitude": "40.47787300000",
    "longitude": "-88.37062500000"
  },
  {
    "name": "GOTTLIEB MEMORIAL HOSPITAL",
    "name2": "",
    "address": "701 WEST NORTH AVENUE",
    "address_2": "",
    "city": "MELROSE PARK",
    "state": "IL",
    "zip_code": "60160",
    "description": "General Hospital",
    "website": "www.gottliebhospital.org",
    "latitude": "41.90835200000",
    "longitude": "-87.84243400000"
  },
  {
    "name": "GRAHAM HOSPITAL ASSOCIATION",
    "name2": "",
    "address": "210 WEST WALNUT STREET",
    "address_2": "",
    "city": "CANTON",
    "state": "IL",
    "zip_code": "61520",
    "description": "General Hospital",
    "website": "www.grahamhospital.org",
    "latitude": "40.55311800000",
    "longitude": "-90.03821200000"
  },
  {
    "name": "HAMILTON MEMORIAL HOSPITAL",
    "name2": "",
    "address": "611 S MARSHALL AVENUE",
    "address_2": "",
    "city": "MC LEANSBORO",
    "state": "IL",
    "zip_code": "62859",
    "description": "Critical Access Hospital",
    "website": "",
    "latitude": "38.08700800000",
    "longitude": "-88.54109400000"
  },
  {
    "name": "HAMMOND-HENRY HOSPITAL",
    "name2": "",
    "address": "600 N. COLLEGE AVENUE",
    "address_2": "",
    "city": "GENESEO",
    "state": "IL",
    "zip_code": "61254",
    "description": "Critical Access Hospital",
    "website": "www.hammondhenry.com",
    "latitude": "41.46014200000",
    "longitude": "-90.15797000000"
  },
  {
    "name": "HERRIN HOSPITAL",
    "name2": "",
    "address": "201 S 14TH STREET",
    "address_2": "",
    "city": "HERRIN",
    "state": "IL",
    "zip_code": "62948",
    "description": "General Hospital",
    "website": "www.herrinhospital.org",
    "latitude": "37.80283700000",
    "longitude": "-89.02665100000"
  },
  {
    "name": "HILLSBORO AREA HOSPITAL",
    "name2": "",
    "address": "1200 EAST TREMONT STREET",
    "address_2": "",
    "city": "HILLSBORO",
    "state": "IL",
    "zip_code": "62049",
    "description": "General Hospital",
    "website": "www.hillsboroareahospital.org",
    "latitude": "39.15356900000",
    "longitude": "-89.48179900000"
  },
  {
    "name": "HINSDALE HOSPITAL",
    "name2": "",
    "address": "120 NORTH OAK STREET",
    "address_2": "",
    "city": "HINSDALE",
    "state": "IL",
    "zip_code": "60521",
    "description": "General Hospital",
    "website": "www.ahsmidwest.org/Facilities/hinsdale",
    "latitude": "41.80535300000",
    "longitude": "-87.92023300000"
  },
  {
    "name": "HOLY CROSS HOSPITAL",
    "name2": "",
    "address": "2701 WEST 68TH STREET",
    "address_2": "",
    "city": "CHICAGO",
    "state": "IL",
    "zip_code": "60629",
    "description": "General Hospital",
    "website": "www.holycrosshospital.org",
    "latitude": "41.76981100000",
    "longitude": "-87.69065900000"
  },
  {
    "name": "HOLY FAMILY MEDICAL CENTER",
    "name2": "",
    "address": "100 NORTH RIVER ROAD",
    "address_2": "",
    "city": "DES PLAINES",
    "state": "IL",
    "zip_code": "60016",
    "description": "General Hospital",
    "website": "www.reshealth.org/locations/hospitals.cfm",
    "latitude": "42.05575900000",
    "longitude": "-87.88856800000"
  },
  {
    "name": "HOPEDALE HOSPITAL",
    "name2": "",
    "address": "107 TREMONT STREET",
    "address_2": "P.O. BOX 267",
    "city": "HOPEDALE",
    "state": "IL",
    "zip_code": "61747",
    "description": "General Hospital",
    "website": "",
    "latitude": "40.42410400000",
    "longitude": "-89.41782000000"
  },
  {
    "name": "INGALLS MEMORIAL HOSPITAL",
    "name2": "",
    "address": "ONE INGALLS DRIVE",
    "address_2": "",
    "city": "HARVEY",
    "state": "IL",
    "zip_code": "60426",
    "description": "General Hospital",
    "website": "www.ingallsmemorial.org",
    "latitude": "41.60652700000",
    "longitude": "-87.65926600000"
  },
  {
    "name": "IROQUOIS MEMORIAL HOSPITAL",
    "name2": "",
    "address": "200 FAIRMAN STREET",
    "address_2": "",
    "city": "WATSEKA",
    "state": "IL",
    "zip_code": "60970",
    "description": "General Hospital",
    "website": "www.iroquoismemorial.com",
    "latitude": "40.76562400000",
    "longitude": "-87.73277100000"
  },
  {
    "name": "JACKSON PARK HOSPITAL \u0026 MEDICAL CENTER",
    "name2": "",
    "address": "7531 STONY ISLAND AVENUE",
    "address_2": "",
    "city": "CHICAGO",
    "state": "IL",
    "zip_code": "60649",
    "description": "General Hospital",
    "website": "www.jacksonparkhospital.com",
    "latitude": "41.75786700000",
    "longitude": "-87.58546500000"
  },
  {
    "name": "JERSEY COMMUNITY HOSPITAL",
    "name2": "",
    "address": "400 MAPLE SUMMIT ROAD",
    "address_2": "",
    "city": "JERSEYVILLE",
    "state": "IL",
    "zip_code": "62052",
    "description": "General Hospital",
    "website": "www.jch.org",
    "latitude": "39.11365200000",
    "longitude": "-90.34148200000"
  },
  {
    "name": "DR. JOHN WARNER HOSPITAL",
    "name2": "",
    "address": "422 WEST WHITE STREET",
    "address_2": "",
    "city": "CLINTON",
    "state": "IL",
    "zip_code": "61727",
    "description": "Critical Access Hospital",
    "website": "www.djwhospital.org",
    "latitude": "40.14881800000",
    "longitude": "-88.96497900000"
  },
  {
    "name": "KEWANEE HOSPITAL",
    "name2": "",
    "address": "719 ELLIOTT STREET",
    "address_2": "",
    "city": "KEWANEE",
    "state": "IL",
    "zip_code": "61443",
    "description": "Critical Access Hospital",
    "website": "www.kewaneehospital.com",
    "latitude": "41.23560100000",
    "longitude": "-89.93032500000"
  },
  {
    "name": "LAKE FOREST HOSPITAL",
    "name2": "",
    "address": "660 NORTH WESTMORELAND ROAD",
    "address_2": "",
    "city": "LAKE FOREST",
    "state": "IL",
    "zip_code": "60045",
    "description": "General Hospital",
    "website": "www.lakeforesthospital.com",
    "latitude": "42.25045800000",
    "longitude": "-87.86362000000"
  },
  {
    "name": "LAWRENCE COUNTY MEMORIAL HOSPITAL",
    "name2": "",
    "address": "2200 WEST STATE STREET",
    "address_2": "",
    "city": "LAWRENCEVILLE",
    "state": "IL",
    "zip_code": "62439",
    "description": "General Hospital",
    "website": "",
    "latitude": "38.73156800000",
    "longitude": "-87.69800800000"
  },
  {
    "name": "LITTLE COMPANY OF MARY HOSPITAL",
    "name2": "",
    "address": "2800 WEST 95TH STREET",
    "address_2": "",
    "city": "EVERGREEN PARK",
    "state": "IL",
    "zip_code": "60805",
    "description": "General Hospital",
    "website": "www.lcmh.org",
    "latitude": "41.72097800000",
    "longitude": "-87.69190100000"
  },
  {
    "name": "LORETTO HOSPITAL",
    "name2": "",
    "address": "645 SOUTH CENTRAL AVENUE",
    "address_2": "",
    "city": "CHICAGO",
    "state": "IL",
    "zip_code": "60644",
    "description": "General Hospital",
    "website": "www.lorettohospital.org",
    "latitude": "41.87231600000",
    "longitude": "-87.76425200000"
  },
  {
    "name": "MASON DISTRICT HOSPITAL",
    "name2": "",
    "address": "615 NORTH PROMENADE STREET",
    "address_2": "P. O. BOX 530",
    "city": "HAVANA",
    "state": "IL",
    "zip_code": "62644",
    "description": "Critical Access Hospital",
    "website": "",
    "latitude": "40.30369800000",
    "longitude": "-90.05585300000"
  },
  {
    "name": "MASSAC MEMORIAL HOSPITAL",
    "name2": "",
    "address": "28 CHICK STREET",
    "address_2": "P. O. BOX 850",
    "city": "METROPOLIS",
    "state": "IL",
    "zip_code": "62960",
    "description": "Critical Access Hospital",
    "website": "www.massacmemorialhospital.com",
    "latitude": "37.16665300000",
    "longitude": "-88.73804900000"
  },
  {
    "name": "MCDONOUGH DISTRICT HOSPITAL",
    "name2": "",
    "address": "525 EAST GRANT STREET",
    "address_2": "",
    "city": "MACOMB",
    "state": "IL",
    "zip_code": "61455",
    "description": "General Hospital",
    "website": "www.mdh.org",
    "latitude": "40.44777100000",
    "longitude": "-90.66578600000"
  },
  {
    "name": "MEMORIAL HOSPITAL",
    "name2": "",
    "address": "4500 MEMORIAL DRIVE",
    "address_2": "",
    "city": "BELLEVILLE",
    "state": "IL",
    "zip_code": "62226",
    "description": "General Hospital",
    "website": "www.memhosp.com",
    "latitude": "38.54875600000",
    "longitude": "-90.01929400000"
  },
  {
    "name": "MEMORIAL HOSPITAL",
    "name2": "",
    "address": "1900 STATE STREET",
    "address_2": "",
    "city": "CHESTER",
    "state": "IL",
    "zip_code": "62233",
    "description": "General Hospital",
    "website": "www.mhchester.com",
    "latitude": "37.91837700000",
    "longitude": "-89.81334600000"
  },
  {
    "name": "ELMHURST MEMORIAL HOSPITAL",
    "name2": "",
    "address": "200 BERTEAU AVENUE",
    "address_2": "",
    "city": "ELMHURST",
    "state": "IL",
    "zip_code": "60126",
    "description": "General Hospital",
    "website": "www.emhc.org",
    "latitude": "41.90218900000",
    "longitude": "-87.92954900000"
  },
  {
    "name": "MENDOTA COMMUNITY HOSPITAL",
    "name2": "",
    "address": "1315 MEMORIAL DRIVE",
    "address_2": "",
    "city": "MENDOTA",
    "state": "IL",
    "zip_code": "61342",
    "description": "Critical Access Hospital",
    "website": "www.mendotahospital.org",
    "latitude": "41.55353900000",
    "longitude": "-89.12814300000"
  },
  {
    "name": "MERCY HOSPITAL \u0026 MEDICAL CENTER",
    "name2": "",
    "address": "2525 SOUTH MICHIGAN AVENUE",
    "address_2": "",
    "city": "CHICAGO",
    "state": "IL",
    "zip_code": "60616",
    "description": "General Hospital",
    "website": "www.mercy-chicago.org",
    "latitude": "41.84697000000",
    "longitude": "-87.62328500000"
  },
  {
    "name": "MORRIS HOSPITAL AND HEALTHCARE CENTERS",
    "name2": "",
    "address": "150 WEST HIGH ST",
    "address_2": "",
    "city": "MORRIS",
    "state": "IL",
    "zip_code": "60450",
    "description": "General Hospital",
    "website": "www.morrishospital.org",
    "latitude": "41.36916200000",
    "longitude": "-88.42595700000"
  },
  {
    "name": "MORRISON COMMUNITY HOSPITAL",
    "name2": "",
    "address": "303 NORTH JACKSON STREET",
    "address_2": "",
    "city": "MORRISON",
    "state": "IL",
    "zip_code": "61270",
    "description": "Critical Access Hospital",
    "website": "",
    "latitude": "41.81050200000",
    "longitude": "-89.95679400000"
  },
  {
    "name": "NORTHWEST COMMUNITY HOSPITAL",
    "name2": "",
    "address": "800 WEST CENTRAL ROAD",
    "address_2": "",
    "city": "ARLINGTON HGHTS",
    "state": "IL",
    "zip_code": "60005",
    "description": "General Hospital",
    "website": "www.nch.org",
    "latitude": "42.06675400000",
    "longitude": "-87.99261000000"
  },
  {
    "name": "OUR LADY OF THE RESURRECTION MEDICAL CTR",
    "name2": "",
    "address": "5645 WEST ADDISON STREET",
    "address_2": "",
    "city": "CHICAGO",
    "state": "IL",
    "zip_code": "60634",
    "description": "General Hospital",
    "website": "",
    "latitude": "41.94562900000",
    "longitude": "-87.76776500000"
  },
  {
    "name": "NORWEGIAN-AMERICAN HOSP, INC.",
    "name2": "",
    "address": "1044 NORTH FRANCISCO AVENUE",
    "address_2": "",
    "city": "CHICAGO",
    "state": "IL",
    "zip_code": "60622",
    "description": "General Hospital",
    "website": "www.n-ahs.org",
    "latitude": "41.90043600000",
    "longitude": "-87.69931800000"
  },
  {
    "name": "RUSH OAK PARK HOSPITAL, INC.",
    "name2": "",
    "address": "520 SOUTH MAPLE AVENUE",
    "address_2": "",
    "city": "OAK PARK",
    "state": "IL",
    "zip_code": "60304",
    "description": "General Hospital",
    "website": "www.oakparkhospital.org",
    "latitude": "41.87925600000",
    "longitude": "-87.80348900000"
  },
  {
    "name": "PANA COMMUNITY HOSPITAL",
    "name2": "",
    "address": "101 EAST NINTH STREET",
    "address_2": "",
    "city": "PANA",
    "state": "IL",
    "zip_code": "62557",
    "description": "General Hospital",
    "website": "www.panahospital.com",
    "latitude": "39.38031300000",
    "longitude": "-89.08416900000"
  },
  {
    "name": "PARIS COMMUNITY HOSPITAL",
    "name2": "",
    "address": "721 EAST COURT STREET",
    "address_2": "",
    "city": "PARIS",
    "state": "IL",
    "zip_code": "61944",
    "description": "Critical Access Hospital",
    "website": "www.pariscommunityhospital.com",
    "latitude": "39.60741100000",
    "longitude": "-87.67947000000"
  },
  {
    "name": "PEKIN MEMORIAL HOSPITAL",
    "name2": "",
    "address": "600 SOUTH 13TH STREET",
    "address_2": "",
    "city": "PEKIN",
    "state": "IL",
    "zip_code": "61554",
    "description": "General Hospital",
    "website": "www.pekinhospital.org",
    "latitude": "40.56367500000",
    "longitude": "-89.63295000000"
  },
  {
    "name": "PERRY MEMORIAL HOSPITAL",
    "name2": "",
    "address": "530 PARK AVENUE EAST",
    "address_2": "",
    "city": "PRINCETON",
    "state": "IL",
    "zip_code": "61356",
    "description": "General Hospital",
    "website": "www.perry-memorial.org",
    "latitude": "41.36790400000",
    "longitude": "-89.45499600000"
  },
  {
    "name": "BELOIT MEMORIAL HOSPITAL",
    "name2": "",
    "address": "1969 W. HART ROAD",
    "address_2": "",
    "city": "BELOIT",
    "state": "WI",
    "zip_code": "53511",
    "description": "",
    "website": "",
    "latitude": "42.54678600000",
    "longitude": "-89.00929300000"
  },
  {
    "name": "MERCY MEDICAL CENTER - CLINTON",
    "name2": "",
    "address": "1410 NORTH 4TH STREET",
    "address_2": "",
    "city": "CLINTON",
    "state": "IA",
    "zip_code": "52732",
    "description": "",
    "website": "",
    "latitude": "41.86070400000",
    "longitude": "-90.18843200000"
  },
  {
    "name": "FINLEY HOSPITAL",
    "name2": "",
    "address": "350 N GRANDVIEW",
    "address_2": "",
    "city": "DUBUQUE",
    "state": "IA",
    "zip_code": "52001",
    "description": "",
    "website": "",
    "latitude": "42.49556400000",
    "longitude": "-90.68766900000"
  },
  {
    "name": "THE MONROE CLINIC",
    "name2": "",
    "address": "515 22ND AVENUE",
    "address_2": "",
    "city": "MONROE",
    "state": "WI",
    "zip_code": "53566",
    "description": "",
    "website": "",
    "latitude": "42.60754700000",
    "longitude": "-89.63263500000"
  },
  {
    "name": "ST. MARY'S MEDICAL CENTER (EVANSVILLE)",
    "name2": "",
    "address": "3700 WASHINGTON AVENUE",
    "address_2": "",
    "city": "EVANSVILLE",
    "state": "IN",
    "zip_code": "47750",
    "description": "",
    "website": "",
    "latitude": "37.96235100000",
    "longitude": "-87.50546500000"
  },
  {
    "name": "MERCY MEDICAL CENTER",
    "name2": "",
    "address": "250 MERCY DRIVE",
    "address_2": "",
    "city": "DUBUQUE",
    "state": "IA",
    "zip_code": "52001",
    "description": "",
    "website": "",
    "latitude": "42.49310300000",
    "longitude": "-90.67377800000"
  },
  {
    "name": "SAINT MARGARET MERCY",
    "name2": "",
    "address": "5464 HOHMAN AVENUE",
    "address_2": "",
    "city": "HAMMOND",
    "state": "IN",
    "zip_code": "46320",
    "description": "",
    "website": "",
    "latitude": "41.61439800000",
    "longitude": "-87.52196900000"
  },
  {
    "name": "SCOTT AFB MEDICAL CENTER",
    "name2": "",
    "address": "310 WEST LOSEY STREET",
    "address_2": "",
    "city": "SCOTT AIR FORCE BASE",
    "state": "IL",
    "zip_code": "62225",
    "description": "Military Hospital",
    "website": "",
    "latitude": "38.54316700000",
    "longitude": "-89.86937900000"
  },
  {
    "name": "VETERANS ADMINISTRATION LAKESIDE",
    "name2": "",
    "address": "333 E. HURON",
    "address_2": "",
    "city": "CHICAGO",
    "state": "IL",
    "zip_code": "60611",
    "description": "Military Hospital",
    "website": "",
    "latitude": "41.89497800000",
    "longitude": "-87.61950300000"
  },
  {
    "name": "DEACONESS HOSPITAL",
    "name2": "",
    "address": "6150 OAKLAND AVENUE",
    "address_2": "",
    "city": "ST. LOUIS",
    "state": "MO",
    "zip_code": "63139",
    "description": "",
    "website": "",
    "latitude": "0.00000000000",
    "longitude": "0.00000000000"
  },
  {
    "name": "ADVENTIST BOLINGBROOK HOSPITAL",
    "name2": "",
    "address": "500 REMINGTON BLVD.",
    "address_2": "",
    "city": "BOLINGBROOK",
    "state": "IL",
    "zip_code": "60440",
    "description": "",
    "website": "www.keepingyouwell.com/Facilities/BolingbrookHospital/tabid/211/Default.aspx",
    "latitude": "41.68098397000",
    "longitude": "-88.08368455000"
  },
  {
    "name": "Deaconess Hospital",
    "name2": "",
    "address": "600 Mary Street",
    "address_2": "",
    "city": "Evensville",
    "state": "IN",
    "zip_code": "47747",
    "description": "",
    "website": "",
    "latitude": "37.98493600000",
    "longitude": "-87.57122400000"
  }
]