[ {
  "thursday_close" : "4:30PM",
  "zip_code" : "60625",
  "phone" : "(312) 744-0784",
  "friday_open" : "8:30AM",
  "location" : {
    "needs_recoding" : false,
    "longitude" : "-87.67975768517618",
    "latitude" : "41.968694977057105",
    "human_address" : "{\"address\":\"2019 W Lawrence Ave\",\"city\":\"Chicago\",\"state\":\"IL\",\"zip\":\"60625\"}"
  },
  "sunday_close" : "CLOSED",
  "hours_of_operation" : "Mon - Fri 8:30 A.M. To 4:30 P.M. Sat 9:00 A.M. To 4:00 P.M.",
  "tuesday_open" : "8:30AM",
  "state" : "IL",
  "thursday_open" : "8:30AM",
  "wednesday_close" : "4:30PM",
  "name" : "Northeast",
  "wednesday_open" : "8:30AM",
  "city" : "Chicago",
  "sunday_open" : "CLOSED",
  "monday_close" : "4:30PM",
  "tuesday_close" : "4:30PM",
  "address" : "2019 W Lawrence Ave",
  "monday_open" : "8:30AM",
  "saturday_open" : "9:00AM",
  "site_type" : "Regional Senior Center",
  "additional_notes" : "Seniors Only At This Location",
  "friday_close" : "4:30PM",
  "saturday_close" : "4:00PM"
}
, {
  "thursday_close" : "4:30PM",
  "zip_code" : "60629",
  "phone" : "(312) 747-0440",
  "friday_open" : "8:30AM",
  "location" : {
    "needs_recoding" : false,
    "longitude" : "-87.70315660949412",
    "latitude" : "41.78229468702299",
    "human_address" : "{\"address\":\"6117 S Kedzie Ave\",\"city\":\"Chicago\",\"state\":\"IL\",\"zip\":\"60629\"}"
  },
  "sunday_close" : "CLOSED",
  "hours_of_operation" : "Mon - Fri 8:30 A.M. To 4:30 P.M. Sat 9:00 A.M. To 4:00 P.M.",
  "tuesday_open" : "8:30AM",
  "state" : "IL",
  "thursday_open" : "8:30AM",
  "wednesday_close" : "4:30PM",
  "name" : "Southwest",
  "wednesday_open" : "8:30AM",
  "city" : "Chicago",
  "sunday_open" : "CLOSED",
  "monday_close" : "4:30PM",
  "tuesday_close" : "4:30PM",
  "address" : "6117 S Kedzie Ave",
  "monday_open" : "8:30AM",
  "saturday_open" : "9:00AM",
  "site_type" : "Regional Senior Center",
  "additional_notes" : "Seniors Only At This Location",
  "friday_close" : "4:30PM",
  "saturday_close" : "4:00PM"
}
, {
  "thursday_close" : "4:30PM",
  "zip_code" : "60618",
  "phone" : "(312) 744-6681",
  "friday_open" : "8:30AM",
  "location" : {
    "needs_recoding" : false,
    "longitude" : "-87.72265595766675",
    "latitude" : "41.938325732152336",
    "human_address" : "{\"address\":\"3160 N Milwaukee Ave\",\"city\":\"Chicago\",\"state\":\"IL\",\"zip\":\"60618\"}"
  },
  "sunday_close" : "4:00PM",
  "hours_of_operation" : "Mon - Fri 8:30 A.M. To 4:30 P.M. Sat - Sun 9:00 A.M. To 4:00 P.M",
  "tuesday_open" : "8:30AM",
  "state" : "IL",
  "thursday_open" : "8:30AM",
  "wednesday_close" : "4:30PM",
  "name" : "Northwest",
  "wednesday_open" : "8:30AM",
  "city" : "Chicago",
  "sunday_open" : "9:00AM",
  "monday_close" : "4:30PM",
  "tuesday_close" : "4:30PM",
  "address" : "3160 N Milwaukee Ave",
  "monday_open" : "8:30AM",
  "saturday_open" : "9:00AM",
  "site_type" : "Regional Senior Center",
  "additional_notes" : "Seniors Only At This Location",
  "friday_close" : "4:30PM",
  "saturday_close" : "4:00PM"
}
, {
  "thursday_close" : "4:30PM",
  "zip_code" : "60612",
  "phone" : "(312) 746-5300",
  "friday_open" : "8:30AM",
  "location" : {
    "needs_recoding" : false,
    "longitude" : "-87.67907470907325",
    "latitude" : "41.870607218318284",
    "human_address" : "{\"address\":\"2102 W Ogden Ave\",\"city\":\"Chicago\",\"state\":\"IL\",\"zip\":\"60612\"}"
  },
  "sunday_close" : "CLOSED",
  "hours_of_operation" : "Mon - Fri 8:30 A.M. To 4:30 P.M. ",
  "tuesday_open" : "8:30AM",
  "state" : "IL",
  "thursday_open" : "8:30AM",
  "wednesday_close" : "4:30PM",
  "name" : "Central West",
  "wednesday_open" : "8:30AM",
  "city" : "Chicago",
  "sunday_open" : "CLOSED",
  "monday_close" : "4:30PM",
  "tuesday_close" : "4:30PM",
  "address" : "2102 W Ogden Ave",
  "monday_open" : "8:30AM",
  "saturday_open" : "CLOSED",
  "site_type" : "Regional Senior Center",
  "additional_notes" : "Seniors Only At This Location",
  "friday_close" : "4:30PM",
  "saturday_close" : "CLOSED"
}
, {
  "thursday_close" : "4:30PM",
  "zip_code" : "60649",
  "phone" : "(312) 747-0189",
  "friday_open" : "8:30AM",
  "location" : {
    "needs_recoding" : false,
    "longitude" : "-87.58127911489927",
    "latitude" : "41.75148528422407",
    "human_address" : "{\"address\":\"1767 E 79th St\",\"city\":\"Chicago\",\"state\":\"IL\",\"zip\":\"60649\"}"
  },
  "sunday_close" : "4:00PM",
  "hours_of_operation" : "Mon - Fri 8:30 A.M. To 4:30 P.M. Sat - Sun 9:00 A.M. To 4:00 P.M",
  "tuesday_open" : "8:30AM",
  "state" : "IL",
  "thursday_open" : "8:30AM",
  "wednesday_close" : "4:30PM",
  "name" : "Southeast",
  "wednesday_open" : "8:30AM",
  "city" : "Chicago",
  "sunday_open" : "9:00AM",
  "monday_close" : "4:30PM",
  "tuesday_close" : "4:30PM",
  "address" : "1767 E 79th St",
  "monday_open" : "8:30AM",
  "saturday_open" : "9:00AM",
  "site_type" : "Regional Senior Center",
  "additional_notes" : "Seniors Only At This Location",
  "friday_close" : "4:30PM",
  "saturday_close" : "4:00PM"
}
, {
  "thursday_close" : "4:30PM",
  "zip_code" : "60602",
  "phone" : "(312) 744-4550",
  "friday_open" : "8:30AM",
  "location" : {
    "needs_recoding" : false,
    "longitude" : "-87.62522219047514",
    "latitude" : "41.88327494122517",
    "human_address" : "{\"address\":\"78 E Washington St\",\"city\":\"Chicago\",\"state\":\"IL\",\"zip\":\"60602\"}"
  },
  "sunday_close" : "CLOSED",
  "hours_of_operation" : "Mon - Fri 8:30 A.M. To 4:30 P.M. ",
  "tuesday_open" : "8:30AM",
  "state" : "IL",
  "thursday_open" : "8:30AM",
  "wednesday_close" : "4:30PM",
  "name" : "Renaissance Court",
  "wednesday_open" : "8:30AM",
  "city" : "Chicago",
  "sunday_open" : "CLOSED",
  "monday_close" : "4:30PM",
  "tuesday_close" : "4:30PM",
  "address" : "78 E Washington St",
  "monday_open" : "8:30AM",
  "saturday_open" : "CLOSED",
  "site_type" : "Regional Senior Center",
  "additional_notes" : "Seniors Only At This Location",
  "friday_close" : "4:30PM",
  "saturday_close" : "CLOSED"
}
, {
  "thursday_close" : "5:00PM",
  "zip_code" : "60640",
  "phone" : "311",
  "friday_open" : "9:00AM",
  "location" : {
    "needs_recoding" : false,
    "longitude" : "-87.65488723277781",
    "latitude" : "41.96800354653189",
    "human_address" : "{\"address\":\"4740 N Sheridan Rd\",\"city\":\"Chicago\",\"state\":\"IL\",\"zip\":\"60640\"}"
  },
  "sunday_close" : "CLOSED",
  "hours_of_operation" : "M.T.Th. F 9am-5pm Wed. 11am-7pm",
  "tuesday_open" : "9:00AM",
  "state" : "IL",
  "thursday_open" : "9:00AM",
  "wednesday_close" : "7:00PM",
  "name" : "North Area Center",
  "wednesday_open" : "11:00AM",
  "city" : "Chicago",
  "sunday_open" : "CLOSED",
  "monday_close" : "5:00PM",
  "tuesday_close" : "5:00PM",
  "address" : "4740 N Sheridan Rd",
  "monday_open" : "9:00AM",
  "saturday_open" : "CLOSED",
  "site_type" : "Community Service Center",
  "friday_close" : "5:00PM",
  "saturday_close" : "CLOSED"
}
, {
  "thursday_close" : "5:00PM",
  "zip_code" : "60620",
  "phone" : "311",
  "friday_open" : "9:00AM",
  "location" : {
    "needs_recoding" : false,
    "longitude" : "-87.65293166824182",
    "latitude" : "41.75052412095545",
    "human_address" : "{\"address\":\"1140 W 79th St\",\"city\":\"Chicago\",\"state\":\"IL\",\"zip\":\"60620\"}"
  },
  "sunday_close" : "CLOSED",
  "hours_of_operation" : "M.T.Th. F 9am-5pm Wed. 11am-7pm",
  "tuesday_open" : "9:00AM",
  "state" : "IL",
  "thursday_open" : "9:00AM",
  "wednesday_close" : "7:00PM",
  "name" : "Englewood Center",
  "wednesday_open" : "11:00AM",
  "city" : "Chicago",
  "sunday_open" : "CLOSED",
  "monday_close" : "5:00PM",
  "tuesday_close" : "5:00PM",
  "address" : "1140 W 79th St",
  "monday_open" : "9:00AM",
  "saturday_open" : "CLOSED",
  "site_type" : "Community Service Center",
  "friday_close" : "5:00PM",
  "saturday_close" : "CLOSED"
}
, {
  "thursday_close" : "5:00PM",
  "zip_code" : "60612",
  "phone" : "311",
  "friday_open" : "9:00AM",
  "location" : {
    "needs_recoding" : false,
    "longitude" : "-87.70617830105714",
    "latitude" : "41.88083351336819",
    "human_address" : "{\"address\":\"10 S Kedzie Ave\",\"city\":\"Chicago\",\"state\":\"IL\",\"zip\":\"60612\"}"
  },
  "sunday_close" : "CLOSED",
  "hours_of_operation" : "M.T.Th. F 9am-5pm Wed. 11am-7pm",
  "tuesday_open" : "9:00AM",
  "state" : "IL",
  "thursday_open" : "9:00AM",
  "wednesday_close" : "7:00PM",
  "name" : "Garfield Center",
  "wednesday_open" : "11:00AM",
  "city" : "Chicago",
  "sunday_open" : "CLOSED",
  "monday_close" : "5:00PM",
  "tuesday_close" : "5:00PM",
  "address" : "10 S Kedzie Ave",
  "monday_open" : "9:00AM",
  "saturday_open" : "CLOSED",
  "site_type" : "Community Service Center",
  "additional_notes" : "Emergency shelter requests available 24 hours a day, call 3-1-1 for more information.",
  "friday_close" : "5:00PM",
  "saturday_close" : "CLOSED"
}
, {
  "thursday_close" : "5:00PM",
  "zip_code" : "60653",
  "phone" : "311",
  "friday_open" : "9:00AM",
  "location" : {
    "needs_recoding" : false,
    "longitude" : "-87.60669752271548",
    "latitude" : "41.81627355451758",
    "human_address" : "{\"address\":\"4314 S Cottage Grove Ave\",\"city\":\"Chicago\",\"state\":\"IL\",\"zip\":\"60653\"}"
  },
  "sunday_close" : "CLOSED",
  "hours_of_operation" : "M.T.Th. F 9am-5pm Wed. 11am-7pm",
  "tuesday_open" : "9:00AM",
  "state" : "IL",
  "thursday_open" : "9:00AM",
  "wednesday_close" : "7:00PM",
  "name" : "King Center",
  "wednesday_open" : "11:00AM",
  "city" : "Chicago",
  "sunday_open" : "CLOSED",
  "monday_close" : "5:00PM",
  "tuesday_close" : "5:00PM",
  "address" : "4314 S Cottage Grove Ave",
  "monday_open" : "9:00AM",
  "saturday_open" : "CLOSED",
  "site_type" : "Community Service Center",
  "friday_close" : "5:00PM",
  "saturday_close" : "CLOSED"
}
, {
  "thursday_close" : "5:00PM",
  "zip_code" : "60639",
  "phone" : "311",
  "friday_open" : "9:00AM",
  "location" : {
    "needs_recoding" : false,
    "longitude" : "-87.73554927780232",
    "latitude" : "41.91698823973889",
    "human_address" : "{\"address\":\"4357 W Armitage Ave\",\"city\":\"Chicago\",\"state\":\"IL\",\"zip\":\"60639\"}"
  },
  "sunday_close" : "CLOSED",
  "hours_of_operation" : "M.T.Th. F 9am-5pm Wed. 11am-7pm",
  "tuesday_open" : "9:00AM",
  "state" : "IL",
  "thursday_open" : "9:00AM",
  "wednesday_close" : "7:00PM",
  "name" : "Trina Davila Center",
  "wednesday_open" : "11:00AM",
  "city" : "Chicago",
  "sunday_open" : "CLOSED",
  "monday_close" : "5:00PM",
  "tuesday_close" : "5:00PM",
  "address" : "4357 W Armitage Ave",
  "monday_open" : "9:00AM",
  "saturday_open" : "CLOSED",
  "site_type" : "Community Service Center",
  "friday_close" : "5:00PM",
  "saturday_close" : "CLOSED"
}
, {
  "thursday_close" : "5:00PM",
  "zip_code" : "60617",
  "phone" : "311",
  "friday_open" : "9:00AM",
  "location" : {
    "needs_recoding" : false,
    "longitude" : "-87.55147015689619",
    "latitude" : "41.73767280915678",
    "human_address" : "{\"address\":\"8650 S Commercial Ave\",\"city\":\"Chicago\",\"state\":\"IL\",\"zip\":\"60617\"}"
  },
  "sunday_close" : "CLOSED",
  "hours_of_operation" : "M.T.Th. F 9am-5pm Wed. 11am-7pm",
  "tuesday_open" : "9:00AM",
  "state" : "IL",
  "thursday_open" : "9:00AM",
  "wednesday_close" : "7:00PM",
  "name" : "South Chicago Center",
  "wednesday_open" : "11:00AM",
  "city" : "Chicago",
  "sunday_open" : "CLOSED",
  "monday_close" : "5:00PM",
  "tuesday_close" : "5:00PM",
  "address" : "8650 S Commercial Ave",
  "monday_open" : "9:00AM",
  "saturday_open" : "CLOSED",
  "site_type" : "Community Service Center",
  "friday_close" : "5:00PM",
  "saturday_close" : "CLOSED"
}
, {
  "thursday_close" : "CLOSED",
  "zip_code" : "60616",
  "phone" : "(312) 745-4290",
  "friday_open" : "CLOSED",
  "location" : {
    "needs_recoding" : false,
    "longitude" : "-87.62736911979094",
    "latitude" : "41.85875348329675",
    "human_address" : "{\"address\":\"1718 S State St\",\"city\":\"Chicago\",\"state\":\"IL\",\"zip\":\"60616\"}"
  },
  "sunday_close" : "11:59PM",
  "hours_of_operation" : "Open Saturday And Sunday",
  "tuesday_open" : "CLOSED",
  "state" : "IL",
  "thursday_open" : "CLOSED",
  "wednesday_close" : "CLOSED",
  "name" : "District 1",
  "wednesday_open" : "CLOSED",
  "city" : "Chicago",
  "sunday_open" : "12:00AM",
  "monday_close" : "CLOSED",
  "tuesday_close" : "CLOSED",
  "address" : "1718 S State St",
  "monday_open" : "CLOSED",
  "saturday_open" : "12:00AM",
  "site_type" : "Police Station",
  "friday_close" : "CLOSED",
  "saturday_close" : "11:59PM"
}
, {
  "thursday_close" : "CLOSED",
  "zip_code" : "60609",
  "phone" : "(312) 747-8366",
  "friday_open" : "CLOSED",
  "location" : {
    "needs_recoding" : false,
    "longitude" : "-87.63063516381594",
    "latitude" : "41.80181236132043",
    "human_address" : "{\"address\":\"5101 S Wentworth Ave\",\"city\":\"Chicago\",\"state\":\"IL\",\"zip\":\"60609\"}"
  },
  "sunday_close" : "11:59PM",
  "hours_of_operation" : "Open Saturday And Sunday",
  "tuesday_open" : "CLOSED",
  "state" : "IL",
  "thursday_open" : "CLOSED",
  "wednesday_close" : "CLOSED",
  "name" : "District 2",
  "wednesday_open" : "CLOSED",
  "city" : "Chicago",
  "sunday_open" : "12:00AM",
  "monday_close" : "CLOSED",
  "tuesday_close" : "CLOSED",
  "address" : "5101 S Wentworth Ave",
  "monday_open" : "CLOSED",
  "saturday_open" : "12:00AM",
  "site_type" : "Police Station",
  "friday_close" : "CLOSED",
  "saturday_close" : "11:59PM"
}
, {
  "thursday_close" : "CLOSED",
  "zip_code" : "60637",
  "phone" : "(312) 747-8201",
  "friday_open" : "CLOSED",
  "location" : {
    "needs_recoding" : false,
    "longitude" : "-87.60565422037726",
    "latitude" : "41.766487809914835",
    "human_address" : "{\"address\":\"7040 S Cottage Grove Ave\",\"city\":\"Chicago\",\"state\":\"IL\",\"zip\":\"60637\"}"
  },
  "sunday_close" : "11:59PM",
  "hours_of_operation" : "Open Saturday And Sunday",
  "tuesday_open" : "CLOSED",
  "state" : "IL",
  "thursday_open" : "CLOSED",
  "wednesday_close" : "CLOSED",
  "name" : "District 3",
  "wednesday_open" : "CLOSED",
  "city" : "Chicago",
  "sunday_open" : "12:00AM",
  "monday_close" : "CLOSED",
  "tuesday_close" : "CLOSED",
  "address" : "7040 S Cottage Grove Ave",
  "monday_open" : "CLOSED",
  "saturday_open" : "12:00AM",
  "site_type" : "Police Station",
  "friday_close" : "CLOSED",
  "saturday_close" : "11:59PM"
}
, {
  "thursday_close" : "CLOSED",
  "zip_code" : "60617",
  "phone" : "(312) 747-7581",
  "friday_open" : "CLOSED",
  "location" : {
    "needs_recoding" : false,
    "longitude" : "-87.56760626085435",
    "latitude" : "41.708010995083974",
    "human_address" : "{\"address\":\"2255 E 103rd St\",\"city\":\"Chicago\",\"state\":\"IL\",\"zip\":\"60617\"}"
  },
  "sunday_close" : "11:59PM",
  "hours_of_operation" : "Open Saturday And Sunday",
  "tuesday_open" : "CLOSED",
  "state" : "IL",
  "thursday_open" : "CLOSED",
  "wednesday_close" : "CLOSED",
  "name" : "District 4",
  "wednesday_open" : "CLOSED",
  "city" : "Chicago",
  "sunday_open" : "12:00AM",
  "monday_close" : "CLOSED",
  "tuesday_close" : "CLOSED",
  "address" : "2255 E 103rd St",
  "monday_open" : "CLOSED",
  "saturday_open" : "12:00AM",
  "site_type" : "Police Station",
  "friday_close" : "CLOSED",
  "saturday_close" : "11:59PM"
}
, {
  "thursday_close" : "CLOSED",
  "zip_code" : "60628",
  "phone" : "(312) 747-8210",
  "friday_open" : "CLOSED",
  "location" : {
    "needs_recoding" : false,
    "longitude" : "-87.60546461966248",
    "latitude" : "41.692768796775",
    "human_address" : "{\"address\":\"727 E 111th St\",\"city\":\"Chicago\",\"state\":\"IL\",\"zip\":\"60628\"}"
  },
  "sunday_close" : "11:59PM",
  "hours_of_operation" : "Open Saturday And Sunday",
  "tuesday_open" : "CLOSED",
  "state" : "IL",
  "thursday_open" : "CLOSED",
  "wednesday_close" : "CLOSED",
  "name" : "District 5",
  "wednesday_open" : "CLOSED",
  "city" : "Chicago",
  "sunday_open" : "12:00AM",
  "monday_close" : "CLOSED",
  "tuesday_close" : "CLOSED",
  "address" : "727 E 111th St",
  "monday_open" : "CLOSED",
  "saturday_open" : "12:00AM",
  "site_type" : "Police Station",
  "friday_close" : "CLOSED",
  "saturday_close" : "11:59PM"
}
, {
  "thursday_close" : "CLOSED",
  "zip_code" : "60620",
  "phone" : "(312) 745-3617",
  "friday_open" : "CLOSED",
  "location" : {
    "needs_recoding" : false,
    "longitude" : "-87.64413530585745",
    "latitude" : "41.75227376972855",
    "human_address" : "{\"address\":\"7808 S Halsted St\",\"city\":\"Chicago\",\"state\":\"IL\",\"zip\":\"60620\"}"
  },
  "sunday_close" : "11:59PM",
  "hours_of_operation" : "Open Saturday And Sunday",
  "tuesday_open" : "CLOSED",
  "state" : "IL",
  "thursday_open" : "CLOSED",
  "wednesday_close" : "CLOSED",
  "name" : "District 6",
  "wednesday_open" : "CLOSED",
  "city" : "Chicago",
  "sunday_open" : "12:00AM",
  "monday_close" : "CLOSED",
  "tuesday_close" : "CLOSED",
  "address" : "7808 S Halsted St",
  "monday_open" : "CLOSED",
  "saturday_open" : "12:00AM",
  "site_type" : "Police Station",
  "friday_close" : "CLOSED",
  "saturday_close" : "11:59PM"
}
, {
  "thursday_close" : "CLOSED",
  "zip_code" : "60636",
  "phone" : "(312) 747-8223",
  "friday_open" : "CLOSED",
  "location" : {
    "needs_recoding" : false,
    "longitude" : "-87.66086368854025",
    "latitude" : "41.779554236061244",
    "human_address" : "{\"address\":\"1438 W 63rd St\",\"city\":\"Chicago\",\"state\":\"IL\",\"zip\":\"60636\"}"
  },
  "sunday_close" : "11:59PM",
  "hours_of_operation" : "Open Saturday And Sunday",
  "tuesday_open" : "CLOSED",
  "state" : "IL",
  "thursday_open" : "CLOSED",
  "wednesday_close" : "CLOSED",
  "name" : "District 7",
  "wednesday_open" : "CLOSED",
  "city" : "Chicago",
  "sunday_open" : "12:00AM",
  "monday_close" : "CLOSED",
  "tuesday_close" : "CLOSED",
  "address" : "1438 W 63rd St",
  "monday_open" : "CLOSED",
  "saturday_open" : "12:00AM",
  "site_type" : "Police Station",
  "friday_close" : "CLOSED",
  "saturday_close" : "11:59PM"
}
, {
  "thursday_close" : "CLOSED",
  "zip_code" : "60629",
  "phone" : "(312) 747-8730",
  "friday_open" : "CLOSED",
  "location" : {
    "needs_recoding" : false,
    "longitude" : "-87.70886949846425",
    "latitude" : "41.77891571742043",
    "human_address" : "{\"address\":\"3420 W 63rd St\",\"city\":\"Chicago\",\"state\":\"IL\",\"zip\":\"60629\"}"
  },
  "sunday_close" : "11:59PM",
  "hours_of_operation" : "Open Saturday And Sunday",
  "tuesday_open" : "CLOSED",
  "state" : "IL",
  "thursday_open" : "CLOSED",
  "wednesday_close" : "CLOSED",
  "name" : "District 8",
  "wednesday_open" : "CLOSED",
  "city" : "Chicago",
  "sunday_open" : "12:00AM",
  "monday_close" : "CLOSED",
  "tuesday_close" : "CLOSED",
  "address" : "3420 W 63rd St",
  "monday_open" : "CLOSED",
  "saturday_open" : "12:00AM",
  "site_type" : "Police Station",
  "friday_close" : "CLOSED",
  "saturday_close" : "11:59PM"
}
, {
  "thursday_close" : "CLOSED",
  "zip_code" : "60608",
  "phone" : "(312) 747-8227",
  "friday_open" : "CLOSED",
  "location" : {
    "needs_recoding" : false,
    "longitude" : "-87.64635129661039",
    "latitude" : "41.83770312989609",
    "human_address" : "{\"address\":\"3120 S Halsted St\",\"city\":\"Chicago\",\"state\":\"IL\",\"zip\":\"60608\"}"
  },
  "sunday_close" : "11:59PM",
  "hours_of_operation" : "Open Saturday And Sunday",
  "tuesday_open" : "CLOSED",
  "state" : "IL",
  "thursday_open" : "CLOSED",
  "wednesday_close" : "CLOSED",
  "name" : "District 9",
  "wednesday_open" : "CLOSED",
  "city" : "Chicago",
  "sunday_open" : "12:00AM",
  "monday_close" : "CLOSED",
  "tuesday_close" : "CLOSED",
  "address" : "3120 S Halsted St",
  "monday_open" : "CLOSED",
  "saturday_open" : "12:00AM",
  "site_type" : "Police Station",
  "friday_close" : "CLOSED",
  "saturday_close" : "11:59PM"
}
, {
  "thursday_close" : "CLOSED",
  "zip_code" : "60623",
  "phone" : "(312) 747-7511",
  "friday_open" : "CLOSED",
  "location" : {
    "needs_recoding" : false,
    "longitude" : "-87.70861768829604",
    "latitude" : "41.85661714075195",
    "human_address" : "{\"address\":\"3315 W Ogden Ave\",\"city\":\"Chicago\",\"state\":\"IL\",\"zip\":\"60623\"}"
  },
  "sunday_close" : "11:59PM",
  "hours_of_operation" : "Open Saturday And Sunday",
  "tuesday_open" : "CLOSED",
  "state" : "IL",
  "thursday_open" : "CLOSED",
  "wednesday_close" : "CLOSED",
  "name" : "District 10",
  "wednesday_open" : "CLOSED",
  "city" : "Chicago",
  "sunday_open" : "12:00AM",
  "monday_close" : "CLOSED",
  "tuesday_close" : "CLOSED",
  "address" : "3315 W Ogden Ave",
  "monday_open" : "CLOSED",
  "saturday_open" : "12:00AM",
  "site_type" : "Police Station",
  "friday_close" : "CLOSED",
  "saturday_close" : "11:59PM"
}
, {
  "thursday_close" : "CLOSED",
  "zip_code" : "60612",
  "phone" : "(312) 746-8386",
  "friday_open" : "CLOSED",
  "location" : {
    "needs_recoding" : false,
    "longitude" : "-87.70470139136083",
    "latitude" : "41.87363569375314",
    "human_address" : "{\"address\":\"3151 W Harrison St\",\"city\":\"Chicago\",\"state\":\"IL\",\"zip\":\"60612\"}"
  },
  "sunday_close" : "11:59PM",
  "hours_of_operation" : "Open Saturday And Sunday",
  "tuesday_open" : "CLOSED",
  "state" : "IL",
  "thursday_open" : "CLOSED",
  "wednesday_close" : "CLOSED",
  "name" : "District 11",
  "wednesday_open" : "CLOSED",
  "city" : "Chicago",
  "sunday_open" : "12:00AM",
  "monday_close" : "CLOSED",
  "tuesday_close" : "CLOSED",
  "address" : "3151 W Harrison St",
  "monday_open" : "CLOSED",
  "saturday_open" : "12:00AM",
  "site_type" : "Police Station",
  "friday_close" : "CLOSED",
  "saturday_close" : "11:59PM"
}
, {
  "thursday_close" : "CLOSED",
  "zip_code" : "60607",
  "phone" : "(312) 746-8309",
  "friday_open" : "CLOSED",
  "location" : {
    "needs_recoding" : false,
    "longitude" : "-87.65718605280287",
    "latitude" : "41.88029254022915",
    "human_address" : "{\"address\":\"100 S Racine Ave\",\"city\":\"Chicago\",\"state\":\"IL\",\"zip\":\"60607\"}"
  },
  "sunday_close" : "11:59PM",
  "hours_of_operation" : "Open Saturday And Sunday",
  "tuesday_open" : "CLOSED",
  "state" : "IL",
  "thursday_open" : "CLOSED",
  "wednesday_close" : "CLOSED",
  "name" : "District 12",
  "wednesday_open" : "CLOSED",
  "city" : "Chicago",
  "sunday_open" : "12:00AM",
  "monday_close" : "CLOSED",
  "tuesday_close" : "CLOSED",
  "address" : "100 S Racine Ave",
  "monday_open" : "CLOSED",
  "saturday_open" : "12:00AM",
  "site_type" : "Police Station",
  "friday_close" : "CLOSED",
  "saturday_close" : "11:59PM"
}
, {
  "thursday_close" : "CLOSED",
  "zip_code" : "60622",
  "phone" : "(312) 746-8357",
  "friday_open" : "CLOSED",
  "location" : {
    "needs_recoding" : false,
    "longitude" : "-87.6721713911488",
    "latitude" : "41.89868827517644",
    "human_address" : "{\"address\":\"937 N Wood St\",\"city\":\"Chicago\",\"state\":\"IL\",\"zip\":\"60622\"}"
  },
  "sunday_close" : "11:59PM",
  "hours_of_operation" : "Open Saturday And Sunday",
  "tuesday_open" : "CLOSED",
  "state" : "IL",
  "thursday_open" : "CLOSED",
  "wednesday_close" : "CLOSED",
  "name" : "District 13",
  "wednesday_open" : "CLOSED",
  "city" : "Chicago",
  "sunday_open" : "12:00AM",
  "monday_close" : "CLOSED",
  "tuesday_close" : "CLOSED",
  "address" : "937 N Wood St",
  "monday_open" : "CLOSED",
  "saturday_open" : "12:00AM",
  "site_type" : "Police Station",
  "friday_close" : "CLOSED",
  "saturday_close" : "11:59PM"
}
, {
  "thursday_close" : "CLOSED",
  "zip_code" : "60647",
  "phone" : "(312) 744-8250",
  "friday_open" : "CLOSED",
  "location" : {
    "needs_recoding" : false,
    "longitude" : "-87.6973694461494",
    "latitude" : "41.92094381440253",
    "human_address" : "{\"address\":\"2150 N California Ave\",\"city\":\"Chicago\",\"state\":\"IL\",\"zip\":\"60647\"}"
  },
  "sunday_close" : "11:59PM",
  "hours_of_operation" : "Open Saturday And Sunday",
  "tuesday_open" : "CLOSED",
  "state" : "IL",
  "thursday_open" : "CLOSED",
  "wednesday_close" : "CLOSED",
  "name" : "District 14",
  "wednesday_open" : "CLOSED",
  "city" : "Chicago",
  "sunday_open" : "12:00AM",
  "monday_close" : "CLOSED",
  "tuesday_close" : "CLOSED",
  "address" : "2150 N California Ave",
  "monday_open" : "CLOSED",
  "saturday_open" : "12:00AM",
  "site_type" : "Police Station",
  "friday_close" : "CLOSED",
  "saturday_close" : "11:59PM"
}
, {
  "thursday_close" : "CLOSED",
  "zip_code" : "60644",
  "phone" : "(312) 743-1440",
  "friday_open" : "CLOSED",
  "location" : {
    "needs_recoding" : false,
    "longitude" : "-87.7683326710416",
    "latitude" : "41.88016139147908",
    "human_address" : "{\"address\":\"5701 W Madison St\",\"city\":\"Chicago\",\"state\":\"IL\",\"zip\":\"60644\"}"
  },
  "sunday_close" : "11:59PM",
  "hours_of_operation" : "Open Saturday And Sunday",
  "tuesday_open" : "CLOSED",
  "state" : "IL",
  "thursday_open" : "CLOSED",
  "wednesday_close" : "CLOSED",
  "name" : "District 15",
  "wednesday_open" : "CLOSED",
  "city" : "Chicago",
  "sunday_open" : "12:00AM",
  "monday_close" : "CLOSED",
  "tuesday_close" : "CLOSED",
  "address" : "5701 W Madison St",
  "monday_open" : "CLOSED",
  "saturday_open" : "12:00AM",
  "site_type" : "Police Station",
  "friday_close" : "CLOSED",
  "saturday_close" : "11:59PM"
}
, {
  "thursday_close" : "CLOSED",
  "zip_code" : "60630",
  "phone" : "(312) 742-4480",
  "friday_open" : "CLOSED",
  "location" : {
    "needs_recoding" : false,
    "longitude" : "-87.76622325596205",
    "latitude" : "41.97406875064436",
    "human_address" : "{\"address\":\"5151 N Milwaukee Ave\",\"city\":\"Chicago\",\"state\":\"IL\",\"zip\":\"60630\"}"
  },
  "sunday_close" : "11:59PM",
  "hours_of_operation" : "Open Saturday And Sunday",
  "tuesday_open" : "CLOSED",
  "state" : "IL",
  "thursday_open" : "CLOSED",
  "wednesday_close" : "CLOSED",
  "name" : "District 16",
  "wednesday_open" : "CLOSED",
  "city" : "Chicago",
  "sunday_open" : "12:00AM",
  "monday_close" : "CLOSED",
  "tuesday_close" : "CLOSED",
  "address" : "5151 N Milwaukee Ave",
  "monday_open" : "CLOSED",
  "saturday_open" : "12:00AM",
  "site_type" : "Police Station",
  "friday_close" : "CLOSED",
  "saturday_close" : "11:59PM"
}
, {
  "thursday_close" : "CLOSED",
  "zip_code" : "60630",
  "phone" : "(312) 742-4410",
  "friday_open" : "CLOSED",
  "location" : {
    "needs_recoding" : false,
    "longitude" : "-87.72801606446808",
    "latitude" : "41.96617255036131",
    "human_address" : "{\"address\":\"4650 N Pulaski Rd\",\"city\":\"Chicago\",\"state\":\"IL\",\"zip\":\"60630\"}"
  },
  "sunday_close" : "11:59PM",
  "hours_of_operation" : "Open Saturday And Sunday",
  "tuesday_open" : "CLOSED",
  "state" : "IL",
  "thursday_open" : "CLOSED",
  "wednesday_close" : "CLOSED",
  "name" : "District 17",
  "wednesday_open" : "CLOSED",
  "city" : "Chicago",
  "sunday_open" : "12:00AM",
  "monday_close" : "CLOSED",
  "tuesday_close" : "CLOSED",
  "address" : "4650 N Pulaski Rd",
  "monday_open" : "CLOSED",
  "saturday_open" : "12:00AM",
  "site_type" : "Police Station",
  "friday_close" : "CLOSED",
  "saturday_close" : "11:59PM"
}
, {
  "thursday_close" : "CLOSED",
  "zip_code" : "60610",
  "phone" : "(312) 742-5870",
  "friday_open" : "CLOSED",
  "location" : {
    "needs_recoding" : false,
    "longitude" : "-87.64321899032535",
    "latitude" : "41.90324698797116",
    "human_address" : "{\"address\":\"1160 N Larrabee St\",\"city\":\"Chicago\",\"state\":\"IL\",\"zip\":\"60610\"}"
  },
  "sunday_close" : "11:59PM",
  "hours_of_operation" : "Open Saturday And Sunday",
  "tuesday_open" : "CLOSED",
  "state" : "IL",
  "thursday_open" : "CLOSED",
  "wednesday_close" : "CLOSED",
  "name" : "District 18",
  "wednesday_open" : "CLOSED",
  "city" : "Chicago",
  "sunday_open" : "12:00AM",
  "monday_close" : "CLOSED",
  "tuesday_close" : "CLOSED",
  "address" : "1160 N Larrabee St",
  "monday_open" : "CLOSED",
  "saturday_open" : "12:00AM",
  "site_type" : "Police Station",
  "friday_close" : "CLOSED",
  "saturday_close" : "11:59PM"
}
, {
  "thursday_close" : "CLOSED",
  "zip_code" : "60613",
  "phone" : "(312) 744-8320",
  "friday_open" : "CLOSED",
  "location" : {
    "needs_recoding" : false,
    "longitude" : "-87.65096073232333",
    "latitude" : "41.94734508071834",
    "human_address" : "{\"address\":\"850 W Addison St\",\"city\":\"Chicago\",\"state\":\"IL\",\"zip\":\"60613\"}"
  },
  "sunday_close" : "11:59PM",
  "hours_of_operation" : "Open Saturday And Sunday",
  "tuesday_open" : "CLOSED",
  "state" : "IL",
  "thursday_open" : "CLOSED",
  "wednesday_close" : "CLOSED",
  "name" : "District 19",
  "wednesday_open" : "CLOSED",
  "city" : "Chicago",
  "sunday_open" : "12:00AM",
  "monday_close" : "CLOSED",
  "tuesday_close" : "CLOSED",
  "address" : "850 W Addison St",
  "monday_open" : "CLOSED",
  "saturday_open" : "12:00AM",
  "site_type" : "Police Station",
  "friday_close" : "CLOSED",
  "saturday_close" : "11:59PM"
}
, {
  "thursday_close" : "CLOSED",
  "zip_code" : "60625",
  "phone" : "(312) 742-8714",
  "friday_open" : "CLOSED",
  "location" : {
    "needs_recoding" : false,
    "longitude" : "-87.69275364769919",
    "latitude" : "41.97968036724137",
    "human_address" : "{\"address\":\"5400 N Lincoln Ave\",\"city\":\"Chicago\",\"state\":\"IL\",\"zip\":\"60625\"}"
  },
  "sunday_close" : "11:59PM",
  "hours_of_operation" : "Open Saturday And Sunday",
  "tuesday_open" : "CLOSED",
  "state" : "IL",
  "thursday_open" : "CLOSED",
  "wednesday_close" : "CLOSED",
  "name" : "District 20",
  "wednesday_open" : "CLOSED",
  "city" : "Chicago",
  "sunday_open" : "12:00AM",
  "monday_close" : "CLOSED",
  "tuesday_close" : "CLOSED",
  "address" : "5400 N Lincoln Ave",
  "monday_open" : "CLOSED",
  "saturday_open" : "12:00AM",
  "site_type" : "Police Station",
  "friday_close" : "CLOSED",
  "saturday_close" : "11:59PM"
}
, {
  "thursday_close" : "CLOSED",
  "zip_code" : "60643",
  "phone" : "(312) 745-0710",
  "friday_open" : "CLOSED",
  "location" : {
    "needs_recoding" : false,
    "longitude" : "-87.66849878751209",
    "latitude" : "41.69137510453929",
    "human_address" : "{\"address\":\"1900 W Monterey Ave\",\"city\":\"Chicago\",\"state\":\"IL\",\"zip\":\"60643\"}"
  },
  "sunday_close" : "11:59PM",
  "hours_of_operation" : "Open Saturday And Sunday",
  "tuesday_open" : "CLOSED",
  "state" : "IL",
  "thursday_open" : "CLOSED",
  "wednesday_close" : "CLOSED",
  "name" : "District 22",
  "wednesday_open" : "CLOSED",
  "city" : "Chicago",
  "sunday_open" : "12:00AM",
  "monday_close" : "CLOSED",
  "tuesday_close" : "CLOSED",
  "address" : "1900 W Monterey Ave",
  "monday_open" : "CLOSED",
  "saturday_open" : "12:00AM",
  "site_type" : "Police Station",
  "friday_close" : "CLOSED",
  "saturday_close" : "11:59PM"
}
, {
  "thursday_close" : "CLOSED",
  "zip_code" : "60626",
  "phone" : "(312) 744-5907",
  "friday_open" : "CLOSED",
  "location" : {
    "needs_recoding" : false,
    "longitude" : "-87.6711905180936",
    "latitude" : "41.999646075961806",
    "human_address" : "{\"address\":\"6464 N Clark St\",\"city\":\"Chicago\",\"state\":\"IL\",\"zip\":\"60626\"}"
  },
  "sunday_close" : "11:59PM",
  "hours_of_operation" : "Open Saturday And Sunday",
  "tuesday_open" : "CLOSED",
  "state" : "IL",
  "thursday_open" : "CLOSED",
  "wednesday_close" : "CLOSED",
  "name" : "District 24",
  "wednesday_open" : "CLOSED",
  "city" : "Chicago",
  "sunday_open" : "12:00AM",
  "monday_close" : "CLOSED",
  "tuesday_close" : "CLOSED",
  "address" : "6464 N Clark St",
  "monday_open" : "CLOSED",
  "saturday_open" : "12:00AM",
  "site_type" : "Police Station",
  "friday_close" : "CLOSED",
  "saturday_close" : "11:59PM"
}
, {
  "thursday_close" : "CLOSED",
  "zip_code" : "60639",
  "phone" : "(312) 746-8605",
  "friday_open" : "CLOSED",
  "location" : {
    "needs_recoding" : false,
    "longitude" : "-87.76438070966057",
    "latitude" : "41.918443447300604",
    "human_address" : "{\"address\":\"5555 W Grand Ave\",\"city\":\"Chicago\",\"state\":\"IL\",\"zip\":\"60639\"}"
  },
  "sunday_close" : "11:59PM",
  "hours_of_operation" : "Open Saturday And Sunday",
  "tuesday_open" : "CLOSED",
  "state" : "IL",
  "thursday_open" : "CLOSED",
  "wednesday_close" : "CLOSED",
  "name" : "District 25",
  "wednesday_open" : "CLOSED",
  "city" : "Chicago",
  "sunday_open" : "12:00AM",
  "monday_close" : "CLOSED",
  "tuesday_close" : "CLOSED",
  "address" : "5555 W Grand Ave",
  "monday_open" : "CLOSED",
  "saturday_open" : "12:00AM",
  "site_type" : "Police Station",
  "friday_close" : "CLOSED",
  "saturday_close" : "11:59PM"
}
, {
  "thursday_close" : "8:00PM",
  "zip_code" : "60625",
  "phone" : "(312) 744-1933",
  "friday_open" : "9:00AM",
  "location" : {
    "needs_recoding" : false,
    "longitude" : "-87.71358529181015",
    "latitude" : "41.97484541004977",
    "human_address" : "{\"address\":\"5150 N Kimball Ave\",\"city\":\"Chicago\",\"state\":\"IL\",\"zip\":\"60625\"}"
  },
  "sunday_close" : "CLOSED",
  "hours_of_operation" : "M, W: 10am-6pm;  Tu, Th: 12pm-8pm; F, Sa: 9am-5pm; Su: Closed",
  "tuesday_open" : "12:00PM",
  "state" : "IL",
  "thursday_open" : "12:00PM",
  "wednesday_close" : "6:00PM",
  "name" : "Albany Park",
  "wednesday_open" : "10:00AM",
  "city" : "Chicago",
  "sunday_open" : "CLOSED",
  "monday_close" : "6:00PM",
  "tuesday_close" : "8:00PM",
  "address" : "5150 N Kimball Ave",
  "monday_open" : "10:00AM",
  "saturday_open" : "9:00AM",
  "site_type" : "Library",
  "friday_close" : "5:00PM",
  "saturday_close" : "5:00PM"
}
, {
  "thursday_close" : "6:00PM",
  "zip_code" : "60827",
  "phone" : "(312) 747-3270",
  "friday_open" : "9:00AM",
  "location" : {
    "needs_recoding" : false,
    "longitude" : "-87.60220329340268",
    "latitude" : "41.654748194923336",
    "human_address" : "{\"address\":\"13281 S. Corliss Ave\",\"city\":\"Chicago\",\"state\":\"IL\",\"zip\":\"60827\"}"
  },
  "sunday_close" : "CLOSED",
  "hours_of_operation" : "M, W: 12pm-8pm; Tu, Th: 10am-6pm; F, Sa: 9am-5pm; Su: Closed",
  "tuesday_open" : "10:00AM",
  "state" : "IL",
  "thursday_open" : "10:00AM",
  "wednesday_close" : "8:00PM",
  "name" : "Altgeld",
  "wednesday_open" : "12:00PM",
  "city" : "Chicago",
  "sunday_open" : "CLOSED",
  "monday_close" : "8:00PM",
  "tuesday_close" : "6:00PM",
  "address" : "13281 S. Corliss Ave",
  "monday_open" : "12:00PM",
  "saturday_open" : "9:00AM",
  "site_type" : "Library",
  "friday_close" : "5:00PM",
  "saturday_close" : "5:00PM"
}
, {
  "thursday_close" : "6:00PM",
  "zip_code" : "60632",
  "phone" : "(312) 747-9241",
  "friday_open" : "9:00AM",
  "location" : {
    "needs_recoding" : false,
    "longitude" : "-87.72648637582104",
    "latitude" : "41.8011516408391",
    "human_address" : "{\"address\":\"5055 S Archer Ave\",\"city\":\"Chicago\",\"state\":\"IL\",\"zip\":\"60632\"}"
  },
  "sunday_close" : "CLOSED",
  "hours_of_operation" : "M, W: 12pm-8pm; Tu, Th: 10am-6pm; F, Sa: 9am-5pm; Su: Closed",
  "tuesday_open" : "10:00AM",
  "state" : "IL",
  "thursday_open" : "10:00AM",
  "wednesday_close" : "8:00PM",
  "name" : "Archer Heights",
  "wednesday_open" : "12:00PM",
  "city" : "Chicago",
  "sunday_open" : "CLOSED",
  "monday_close" : "8:00PM",
  "tuesday_close" : "6:00PM",
  "address" : "5055 S Archer Ave",
  "monday_open" : "12:00PM",
  "saturday_open" : "9:00AM",
  "site_type" : "Library",
  "friday_close" : "5:00PM",
  "saturday_close" : "5:00PM"
}
, {
  "thursday_close" : "6:00PM",
  "zip_code" : "60644",
  "phone" : "(312) 746-5038",
  "friday_open" : "9:00AM",
  "location" : {
    "needs_recoding" : false,
    "longitude" : "-87.76572190710762",
    "latitude" : "41.88923971478115",
    "human_address" : "{\"address\":\"5615 W. Race Ave\",\"city\":\"Chicago\",\"state\":\"IL\",\"zip\":\"60644\"}"
  },
  "sunday_close" : "CLOSED",
  "hours_of_operation" : "M, W: 12pm-8pm; Tu, Th: 10am-6pm; F, Sa: 9am-5pm; Su: Closed",
  "tuesday_open" : "10:00AM",
  "state" : "IL",
  "thursday_open" : "10:00AM",
  "wednesday_close" : "8:00PM",
  "name" : "Austin",
  "wednesday_open" : "12:00PM",
  "city" : "Chicago",
  "sunday_open" : "CLOSED",
  "monday_close" : "8:00PM",
  "tuesday_close" : "6:00PM",
  "address" : "5615 W. Race Ave",
  "monday_open" : "12:00PM",
  "saturday_open" : "9:00AM",
  "site_type" : "Library",
  "friday_close" : "5:00PM",
  "saturday_close" : "5:00PM"
}
, {
  "thursday_close" : "6:00PM",
  "zip_code" : "60634",
  "phone" : "(312) 744-6222",
  "friday_open" : "9:00AM",
  "location" : {
    "needs_recoding" : false,
    "longitude" : "-87.77944829132372",
    "latitude" : "41.95303345551321",
    "human_address" : "{\"address\":\"6100 W Irving Park Rd\",\"city\":\"Chicago\",\"state\":\"IL\",\"zip\":\"60634\"}"
  },
  "sunday_close" : "CLOSED",
  "hours_of_operation" : "M, W: 12pm-8pm; Tu, Th: 10am-6pm; F, Sa: 9am-5pm; Su: Closed",
  "tuesday_open" : "10:00AM",
  "state" : "IL",
  "thursday_open" : "10:00AM",
  "wednesday_close" : "8:00PM",
  "name" : "Austin-Irving",
  "wednesday_open" : "12:00PM",
  "city" : "Chicago",
  "sunday_open" : "CLOSED",
  "monday_close" : "8:00PM",
  "tuesday_close" : "6:00PM",
  "address" : "6100 W Irving Park Rd",
  "monday_open" : "12:00PM",
  "saturday_open" : "9:00AM",
  "site_type" : "Library",
  "friday_close" : "5:00PM",
  "saturday_close" : "5:00PM"
}
, {
  "thursday_close" : "6:00PM",
  "zip_code" : "60617",
  "phone" : "(312) 747-5234",
  "friday_open" : "9:00AM",
  "location" : {
    "needs_recoding" : false,
    "longitude" : "-87.58587821773722",
    "latitude" : "41.74634227351919",
    "human_address" : "{\"address\":\"8148 S Stony Island Ave\",\"city\":\"Chicago\",\"state\":\"IL\",\"zip\":\"60617\"}"
  },
  "sunday_close" : "CLOSED",
  "hours_of_operation" : "M, W: 12pm-8pm; Tu, Th: 10am-6pm; F, Sa: 9am-5pm; Su: Closed",
  "tuesday_open" : "10:00AM",
  "state" : "IL",
  "thursday_open" : "10:00AM",
  "wednesday_close" : "8:00PM",
  "name" : "Avalon",
  "wednesday_open" : "12:00PM",
  "city" : "Chicago",
  "sunday_open" : "CLOSED",
  "monday_close" : "8:00PM",
  "tuesday_close" : "6:00PM",
  "address" : "8148 S Stony Island Ave ",
  "monday_open" : "12:00PM",
  "saturday_open" : "9:00AM",
  "site_type" : "Library",
  "friday_close" : "5:00PM",
  "saturday_close" : "5:00PM"
}
, {
  "thursday_close" : "6:00PM",
  "zip_code" : "60643",
  "phone" : "(312) 747-9673",
  "friday_open" : "9:00AM",
  "location" : {
    "needs_recoding" : false,
    "longitude" : "-87.6718259361853",
    "latitude" : "41.721201982994785",
    "human_address" : "{\"address\":\"1962 W 95th St\",\"city\":\"Chicago\",\"state\":\"IL\",\"zip\":\"60643\"}"
  },
  "sunday_close" : "CLOSED",
  "hours_of_operation" : "M, W: 12pm-8pm; Tu, Th: 10am-6pm; F, Sa: 9am-5pm; Su: Closed",
  "tuesday_open" : "10:00AM",
  "state" : "IL",
  "thursday_open" : "10:00AM",
  "wednesday_close" : "8:00PM",
  "name" : "Beverly",
  "wednesday_open" : "12:00PM",
  "city" : "Chicago",
  "sunday_open" : "CLOSED",
  "monday_close" : "8:00PM",
  "tuesday_close" : "6:00PM",
  "address" : "1962 W 95th St",
  "monday_open" : "12:00PM",
  "saturday_open" : "9:00AM",
  "site_type" : "Library",
  "friday_close" : "5:00PM",
  "saturday_close" : "5:00PM"
}
, {
  "thursday_close" : "6:00PM",
  "zip_code" : "60640",
  "phone" : "(312) 744-0019",
  "friday_open" : "9:00AM",
  "location" : {
    "needs_recoding" : false,
    "longitude" : "-87.66010941497308",
    "latitude" : "41.97150782906277",
    "human_address" : "{\"address\":\"1226 W Ainslie St\",\"city\":\"Chicago\",\"state\":\"IL\",\"zip\":\"60640\"}"
  },
  "sunday_close" : "CLOSED",
  "hours_of_operation" : "M, W: 12pm-8pm; Tu, Th: 10am-6pm; F, Sa: 9am-5pm; Su: Closed",
  "tuesday_open" : "10:00AM",
  "state" : "IL",
  "thursday_open" : "10:00AM",
  "wednesday_close" : "8:00PM",
  "name" : "Bezazian",
  "wednesday_open" : "12:00PM",
  "city" : "Chicago",
  "sunday_open" : "CLOSED",
  "monday_close" : "8:00PM",
  "tuesday_close" : "6:00PM",
  "address" : "1226 W Ainslie St",
  "monday_open" : "12:00PM",
  "saturday_open" : "9:00AM",
  "site_type" : "Library",
  "friday_close" : "5:00PM",
  "saturday_close" : "5:00PM"
}
, {
  "thursday_close" : "6:00PM",
  "zip_code" : "60615",
  "phone" : "(312) 747-0511",
  "friday_open" : "9:00AM",
  "location" : {
    "needs_recoding" : false,
    "longitude" : "-87.58911460582341",
    "latitude" : "41.80549856317075",
    "human_address" : "{\"address\":\"4904 S Lake Park Ave\",\"city\":\"Chicago\",\"state\":\"IL\",\"zip\":\"60615\"}"
  },
  "sunday_close" : "CLOSED",
  "hours_of_operation" : "M, W: 12pm-8pm; Tu, Th: 10am-6pm; F, Sa: 9am-5pm; Su: Closed",
  "tuesday_open" : "10:00AM",
  "state" : "IL",
  "thursday_open" : "10:00AM",
  "wednesday_close" : "8:00PM",
  "name" : "Blackstone",
  "wednesday_open" : "12:00PM",
  "city" : "Chicago",
  "sunday_open" : "CLOSED",
  "monday_close" : "8:00PM",
  "tuesday_close" : "6:00PM",
  "address" : "4904 S Lake Park Ave",
  "monday_open" : "12:00PM",
  "saturday_open" : "9:00AM",
  "site_type" : "Library",
  "friday_close" : "5:00PM",
  "saturday_close" : "5:00PM"
}
, {
  "thursday_close" : "8:00PM",
  "zip_code" : "60620",
  "phone" : "(312) 747-6291",
  "friday_open" : "9:00AM",
  "location" : {
    "needs_recoding" : false,
    "longitude" : "-87.65729514660165",
    "latitude" : "41.73238846647307",
    "human_address" : "{\"address\":\"1350 W 89th St\",\"city\":\"Chicago\",\"state\":\"IL\",\"zip\":\"60620\"}"
  },
  "sunday_close" : "CLOSED",
  "hours_of_operation" : "M, W: 10am-6pm;  Tu, Th: 12pm-8pm; F, Sa: 9am-5pm; Su: Closed",
  "tuesday_open" : "12:00PM",
  "state" : "IL",
  "thursday_open" : "12:00PM",
  "wednesday_close" : "6:00PM",
  "name" : "Brainerd",
  "wednesday_open" : "10:00AM",
  "city" : "Chicago",
  "sunday_open" : "CLOSED",
  "monday_close" : "6:00PM",
  "tuesday_close" : "8:00PM",
  "address" : "1350 W 89th St",
  "monday_open" : "10:00AM",
  "saturday_open" : "9:00AM",
  "site_type" : "Library",
  "friday_close" : "5:00PM",
  "saturday_close" : "5:00PM"
}
, {
  "thursday_close" : "8:00PM",
  "zip_code" : "60632",
  "phone" : "(312) 747-0666",
  "friday_open" : "9:00AM",
  "location" : {
    "needs_recoding" : false,
    "longitude" : "-87.70266951690104",
    "latitude" : "41.8151249356551",
    "human_address" : "{\"address\":\"4314 S Archer Ave\",\"city\":\"Chicago\",\"state\":\"IL\",\"zip\":\"60632\"}"
  },
  "sunday_close" : "CLOSED",
  "hours_of_operation" : "M, W: 10am-6pm;  Tu, Th: 12pm-8pm; F, Sa: 9am-5pm; Su: Closed",
  "tuesday_open" : "12:00PM",
  "state" : "IL",
  "thursday_open" : "12:00PM",
  "wednesday_close" : "6:00PM",
  "name" : "Brighton Park",
  "wednesday_open" : "10:00AM",
  "city" : "Chicago",
  "sunday_open" : "CLOSED",
  "monday_close" : "6:00PM",
  "tuesday_close" : "8:00PM",
  "address" : "4314 S Archer Ave",
  "monday_open" : "10:00AM",
  "saturday_open" : "9:00AM",
  "site_type" : "Library",
  "friday_close" : "5:00PM",
  "saturday_close" : "5:00PM"
}
, {
  "thursday_close" : "6:00PM",
  "zip_code" : "60647",
  "phone" : "(312) 744-6022",
  "friday_open" : "9:00AM",
  "location" : {
    "needs_recoding" : false,
    "longitude" : "-87.68034300369487",
    "latitude" : "41.91227618114533",
    "human_address" : "{\"address\":\"1701 N Milwaukee Ave\",\"city\":\"Chicago\",\"state\":\"IL\",\"zip\":\"60647\"}"
  },
  "sunday_close" : "CLOSED",
  "hours_of_operation" : "M, W: 12pm-8pm; Tu, Th: 10am-6pm; F, Sa: 9am-5pm; Su: Closed",
  "tuesday_open" : "10:00AM",
  "state" : "IL",
  "thursday_open" : "10:00AM",
  "wednesday_close" : "8:00PM",
  "name" : "Bucktown-Wicker Park",
  "wednesday_open" : "12:00PM",
  "city" : "Chicago",
  "sunday_open" : "CLOSED",
  "monday_close" : "8:00PM",
  "tuesday_close" : "6:00PM",
  "address" : "1701 N Milwaukee Ave",
  "monday_open" : "12:00PM",
  "saturday_open" : "9:00AM",
  "site_type" : "Library",
  "friday_close" : "5:00PM",
  "saturday_close" : "5:00PM"
}
, {
  "thursday_close" : "6:00PM",
  "zip_code" : "60659",
  "phone" : "(312) 742-9590",
  "friday_open" : "9:00AM",
  "location" : {
    "needs_recoding" : false,
    "longitude" : "-87.69783932335078",
    "latitude" : "41.984663209242136",
    "human_address" : "{\"address\":\"5630 N Lincoln Ave\",\"city\":\"Chicago\",\"state\":\"IL\",\"zip\":\"60659\"}"
  },
  "sunday_close" : "CLOSED",
  "hours_of_operation" : "M, W: 12pm-8pm; Tu, Th: 10am-6pm; F, Sa: 9am-5pm; Su: Closed",
  "tuesday_open" : "10:00AM",
  "state" : "IL",
  "thursday_open" : "10:00AM",
  "wednesday_close" : "8:00PM",
  "name" : "Budlong Woods",
  "wednesday_open" : "12:00PM",
  "city" : "Chicago",
  "sunday_open" : "CLOSED",
  "monday_close" : "8:00PM",
  "tuesday_close" : "6:00PM",
  "address" : "5630 N Lincoln Ave",
  "monday_open" : "12:00PM",
  "saturday_open" : "9:00AM",
  "site_type" : "Library",
  "friday_close" : "5:00PM",
  "saturday_close" : "5:00PM"
}
, {
  "thursday_close" : "6:00PM",
  "zip_code" : "60609",
  "phone" : "(312) 747-0644",
  "friday_open" : "9:00AM",
  "location" : {
    "needs_recoding" : false,
    "longitude" : "-87.64256248524396",
    "latitude" : "41.81533825960713",
    "human_address" : "{\"address\":\"642 W 43rd St\",\"city\":\"Chicago\",\"state\":\"IL\",\"zip\":\"60609\"}"
  },
  "sunday_close" : "CLOSED",
  "hours_of_operation" : "M, W: 12pm-8pm; Tu, Th: 10am-6pm; F, Sa: 9am-5pm; Su: Closed",
  "tuesday_open" : "10:00AM",
  "state" : "IL",
  "thursday_open" : "10:00AM",
  "wednesday_close" : "8:00PM",
  "name" : "Canaryville",
  "wednesday_open" : "12:00PM",
  "city" : "Chicago",
  "sunday_open" : "CLOSED",
  "monday_close" : "8:00PM",
  "tuesday_close" : "6:00PM",
  "address" : "642 W 43rd St",
  "monday_open" : "12:00PM",
  "saturday_open" : "9:00AM",
  "site_type" : "Library",
  "friday_close" : "5:00PM",
  "saturday_close" : "5:00PM"
}
, {
  "thursday_close" : "6:00PM",
  "zip_code" : "60609",
  "phone" : "(312) 747-6872",
  "friday_open" : "9:00AM",
  "location" : {
    "needs_recoding" : false,
    "longitude" : "-87.62645562769922",
    "latitude" : "41.82814460530432",
    "human_address" : "{\"address\":\"3647 S State St\",\"city\":\"Chicago\",\"state\":\"IL\",\"zip\":\"60609\"}"
  },
  "sunday_close" : "CLOSED",
  "hours_of_operation" : "M, W: 12pm-8pm; Tu, Th: 10am-6pm; F, Sa: 9am-5pm; Su: Closed",
  "tuesday_open" : "10:00AM",
  "state" : "IL",
  "thursday_open" : "10:00AM",
  "wednesday_close" : "8:00PM",
  "name" : "Chicago Bee",
  "wednesday_open" : "12:00PM",
  "city" : "Chicago",
  "sunday_open" : "CLOSED",
  "monday_close" : "8:00PM",
  "tuesday_close" : "6:00PM",
  "address" : "3647 S State St",
  "monday_open" : "12:00PM",
  "saturday_open" : "9:00AM",
  "site_type" : "Library",
  "friday_close" : "5:00PM",
  "saturday_close" : "5:00PM"
}
, {
  "thursday_close" : "8:00PM",
  "zip_code" : "60629",
  "phone" : "(312) 747-0639",
  "friday_open" : "9:00AM",
  "location" : {
    "needs_recoding" : false,
    "longitude" : "-87.70329432075633",
    "latitude" : "41.78197629571594",
    "human_address" : "{\"address\":\"6120 S Kedzie Ave\",\"city\":\"Chicago\",\"state\":\"IL\",\"zip\":\"60629\"}"
  },
  "sunday_close" : "CLOSED",
  "hours_of_operation" : "M, W: 10am-6pm;  Tu, Th: 12pm-8pm; F, Sa: 9am-5pm; Su: Closed",
  "tuesday_open" : "12:00PM",
  "state" : "IL",
  "thursday_open" : "12:00PM",
  "wednesday_close" : "6:00PM",
  "name" : "Chicago Lawn",
  "wednesday_open" : "10:00AM",
  "city" : "Chicago",
  "sunday_open" : "CLOSED",
  "monday_close" : "6:00PM",
  "tuesday_close" : "8:00PM",
  "address" : "6120 S Kedzie Ave ",
  "monday_open" : "10:00AM",
  "saturday_open" : "9:00AM",
  "site_type" : "Library",
  "friday_close" : "5:00PM",
  "saturday_close" : "5:00PM"
}
, {
  "thursday_close" : "6:00PM",
  "zip_code" : "60616",
  "phone" : "(312) 747-8013",
  "friday_open" : "9:00AM",
  "location" : {
    "needs_recoding" : false,
    "longitude" : "-87.63187088623415",
    "latitude" : "41.84976142050114",
    "human_address" : "{\"address\":\"2353 S Wentworth Ave\",\"city\":\"Chicago\",\"state\":\"IL\",\"zip\":\"60616\"}"
  },
  "sunday_close" : "CLOSED",
  "hours_of_operation" : "M, W: 12pm-8pm; Tu, Th: 10am-6pm; F, Sa: 9am-5pm; Su: Closed",
  "tuesday_open" : "10:00AM",
  "state" : "IL",
  "thursday_open" : "10:00AM",
  "wednesday_close" : "8:00PM",
  "name" : "Chinatown",
  "wednesday_open" : "12:00PM",
  "city" : "Chicago",
  "sunday_open" : "CLOSED",
  "monday_close" : "8:00PM",
  "tuesday_close" : "6:00PM",
  "address" : "2353 S Wentworth Ave",
  "monday_open" : "12:00PM",
  "saturday_open" : "9:00AM",
  "site_type" : "Library",
  "friday_close" : "5:00PM",
  "saturday_close" : "5:00PM"
}
, {
  "thursday_close" : "6:00PM",
  "zip_code" : "60638",
  "phone" : "(312) 747-5657",
  "friday_open" : "9:00AM",
  "location" : {
    "needs_recoding" : false,
    "longitude" : "-87.78179293415415",
    "latitude" : "41.77669602524939",
    "human_address" : "{\"address\":\"6423 W 63rd Place\",\"city\":\"Chicago\",\"state\":\"IL\",\"zip\":\"60638\"}"
  },
  "sunday_close" : "CLOSED",
  "hours_of_operation" : "M, W: 12pm-8pm; Tu, Th: 10am-6pm; F, Sa: 9am-5pm; Su: Closed",
  "tuesday_open" : "10:00AM",
  "state" : "IL",
  "thursday_open" : "10:00AM",
  "wednesday_close" : "8:00PM",
  "name" : "Clearing",
  "wednesday_open" : "12:00PM",
  "city" : "Chicago",
  "sunday_open" : "CLOSED",
  "monday_close" : "8:00PM",
  "tuesday_close" : "6:00PM",
  "address" : "6423 W 63rd Place",
  "monday_open" : "12:00PM",
  "saturday_open" : "9:00AM",
  "site_type" : "Library",
  "friday_close" : "5:00PM",
  "saturday_close" : "5:00PM"
}
, {
  "thursday_close" : "6:00PM",
  "zip_code" : "60637",
  "phone" : "(312) 747-7760",
  "friday_open" : "9:00AM",
  "location" : {
    "needs_recoding" : false,
    "longitude" : "-87.60713524338108",
    "latitude" : "41.78032733934338",
    "human_address" : "{\"address\":\"731 E 63rd St\",\"city\":\"Chicago\",\"state\":\"IL\",\"zip\":\"60637\"}"
  },
  "sunday_close" : "CLOSED",
  "hours_of_operation" : "M, W: 12pm-8pm; Tu, Th: 10am-6pm; F, Sa: 9am-5pm; Su: Closed",
  "tuesday_open" : "10:00AM",
  "state" : "IL",
  "thursday_open" : "10:00AM",
  "wednesday_close" : "8:00PM",
  "name" : "Coleman",
  "wednesday_open" : "12:00PM",
  "city" : "Chicago",
  "sunday_open" : "CLOSED",
  "monday_close" : "8:00PM",
  "tuesday_close" : "6:00PM",
  "address" : "731 E 63rd St",
  "monday_open" : "12:00PM",
  "saturday_open" : "9:00AM",
  "site_type" : "Library",
  "friday_close" : "5:00PM",
  "saturday_close" : "5:00PM"
}
, {
  "thursday_close" : "8:00PM",
  "zip_code" : "60608",
  "phone" : "(312) 747-8990",
  "friday_open" : "9:00AM",
  "location" : {
    "needs_recoding" : false,
    "longitude" : "-87.6462238075908",
    "latitude" : "41.83254459934408",
    "human_address" : "{\"address\":\"3400 S Halsted St\",\"city\":\"Chicago\",\"state\":\"IL\",\"zip\":\"60608\"}"
  },
  "sunday_close" : "CLOSED",
  "hours_of_operation" : "M, W: 10am-6pm;  Tu, Th: 12pm-8pm; F, Sa: 9am-5pm; Su: Closed",
  "tuesday_open" : "12:00PM",
  "state" : "IL",
  "thursday_open" : "12:00PM",
  "wednesday_close" : "6:00PM",
  "name" : "Daley, Richard J.-Bridgeport",
  "wednesday_open" : "10:00AM",
  "city" : "Chicago",
  "sunday_open" : "CLOSED",
  "monday_close" : "6:00PM",
  "tuesday_close" : "8:00PM",
  "address" : "3400 S Halsted St",
  "monday_open" : "10:00AM",
  "saturday_open" : "9:00AM",
  "site_type" : "Library",
  "friday_close" : "5:00PM",
  "saturday_close" : "5:00PM"
}
, {
  "thursday_close" : "8:00PM",
  "zip_code" : "60612",
  "phone" : "(312) 743-0555",
  "friday_open" : "9:00AM",
  "location" : {
    "needs_recoding" : false,
    "longitude" : "-87.70646180239689",
    "latitude" : "41.89469362575641",
    "human_address" : "{\"address\":\"733 N Kedzie Ave\",\"city\":\"Chicago\",\"state\":\"IL\",\"zip\":\"60612\"}"
  },
  "sunday_close" : "CLOSED",
  "hours_of_operation" : "M, W: 10am-6pm;  Tu, Th: 12pm-8pm; F, Sa: 9am-5pm; Su: Closed",
  "tuesday_open" : "12:00PM",
  "state" : "IL",
  "thursday_open" : "12:00PM",
  "wednesday_close" : "6:00PM",
  "name" : "Daley, Richard M.-W Humboldt",
  "wednesday_open" : "10:00AM",
  "city" : "Chicago",
  "sunday_open" : "CLOSED",
  "monday_close" : "6:00PM",
  "tuesday_close" : "8:00PM",
  "address" : "733 N Kedzie Ave",
  "monday_open" : "10:00AM",
  "saturday_open" : "9:00AM",
  "site_type" : "Library",
  "friday_close" : "5:00PM",
  "saturday_close" : "5:00PM"
}
, {
  "thursday_close" : "8:00PM",
  "zip_code" : "60623",
  "phone" : "(312) 747-3725",
  "friday_open" : "9:00AM",
  "location" : {
    "needs_recoding" : false,
    "longitude" : "-87.70965742761399",
    "latitude" : "41.86447035277306",
    "human_address" : "{\"address\":\"3353 W 13th St\",\"city\":\"Chicago\",\"state\":\"IL\",\"zip\":\"60623\"}"
  },
  "sunday_close" : "CLOSED",
  "hours_of_operation" : "M, W: 10am-6pm;  Tu, Th: 12pm-8pm; F, Sa: 9am-5pm; Su: Closed",
  "tuesday_open" : "12:00PM",
  "state" : "IL",
  "thursday_open" : "12:00PM",
  "wednesday_close" : "6:00PM",
  "name" : "Douglass",
  "wednesday_open" : "10:00AM",
  "city" : "Chicago",
  "sunday_open" : "CLOSED",
  "monday_close" : "6:00PM",
  "tuesday_close" : "8:00PM",
  "address" : "3353 W 13th St",
  "monday_open" : "10:00AM",
  "saturday_open" : "9:00AM",
  "site_type" : "Library",
  "friday_close" : "5:00PM",
  "saturday_close" : "5:00PM"
}
, {
  "thursday_close" : "6:00PM",
  "zip_code" : "60634",
  "phone" : "(312) 743-0480",
  "friday_open" : "9:00AM",
  "location" : {
    "needs_recoding" : false,
    "longitude" : "-87.81342276248131",
    "latitude" : "41.94327523068454",
    "human_address" : "{\"address\":\"7455 W Cornelia Ave\",\"city\":\"Chicago\",\"state\":\"IL\",\"zip\":\"60634\"}"
  },
  "sunday_close" : "CLOSED",
  "hours_of_operation" : "M, W: 12pm-8pm; Tu, Th: 10am-6pm; F, Sa: 9am-5pm; Su: Closed",
  "tuesday_open" : "10:00AM",
  "state" : "IL",
  "thursday_open" : "10:00AM",
  "wednesday_close" : "8:00PM",
  "name" : "Dunning",
  "wednesday_open" : "12:00PM",
  "city" : "Chicago",
  "sunday_open" : "CLOSED",
  "monday_close" : "8:00PM",
  "tuesday_close" : "6:00PM",
  "address" : "7455 W Cornelia Ave",
  "monday_open" : "12:00PM",
  "saturday_open" : "9:00AM",
  "site_type" : "Library",
  "friday_close" : "5:00PM",
  "saturday_close" : "5:00PM"
}
, {
  "thursday_close" : "6:00PM",
  "zip_code" : "60646",
  "phone" : "(312) 744-8313",
  "friday_open" : "9:00AM",
  "location" : {
    "needs_recoding" : false,
    "longitude" : "-87.7621183558191",
    "latitude" : "41.99724412647362",
    "human_address" : "{\"address\":\"5331 W Devon Ave\",\"city\":\"Chicago\",\"state\":\"IL\",\"zip\":\"60646\"}"
  },
  "sunday_close" : "CLOSED",
  "hours_of_operation" : "M, W: 12pm-8pm; Tu, Th: 10am-6pm; F, Sa: 9am-5pm; Su: Closed",
  "tuesday_open" : "10:00AM",
  "state" : "IL",
  "thursday_open" : "10:00AM",
  "wednesday_close" : "8:00PM",
  "name" : "Edgebrook",
  "wednesday_open" : "12:00PM",
  "city" : "Chicago",
  "sunday_open" : "CLOSED",
  "monday_close" : "8:00PM",
  "tuesday_close" : "6:00PM",
  "address" : "5331 W Devon Ave",
  "monday_open" : "12:00PM",
  "saturday_open" : "9:00AM",
  "site_type" : "Library",
  "friday_close" : "5:00PM",
  "saturday_close" : "5:00PM"
}
, {
  "thursday_close" : "6:00PM",
  "zip_code" : "60660",
  "phone" : "(312) 744-0718",
  "friday_open" : "9:00AM",
  "location" : {
    "needs_recoding" : false,
    "longitude" : "-87.66078987686434",
    "latitude" : "41.990942289427046",
    "human_address" : "{\"address\":\"1210 W Elmdale Ave\",\"city\":\"Chicago\",\"state\":\"IL\",\"zip\":\"60660\"}"
  },
  "sunday_close" : "CLOSED",
  "hours_of_operation" : "M: Closed; Tu-th: 10am-6pm; F, Sa: 9am-5pm; Su: Closed; ",
  "tuesday_open" : "10:00AM",
  "state" : "IL",
  "thursday_open" : "10:00AM",
  "wednesday_close" : "6:00PM",
  "name" : "Edgewater",
  "wednesday_open" : "10:00AM",
  "city" : "Chicago",
  "sunday_open" : "CLOSED",
  "monday_close" : "CLOSED",
  "tuesday_close" : "6:00PM",
  "address" : "1210 W Elmdale Ave",
  "monday_open" : "CLOSED",
  "saturday_open" : "9:00AM",
  "site_type" : "Library",
  "friday_close" : "5:00PM",
  "saturday_close" : "5:00PM"
}
, {
  "thursday_close" : "8:00PM",
  "zip_code" : "60632",
  "phone" : "(312) 747-0032",
  "friday_open" : "9:00AM",
  "location" : {
    "needs_recoding" : false,
    "longitude" : "-87.69412961040405",
    "latitude" : "41.79366459870096",
    "human_address" : "{\"address\":\"2807 W 55th St\",\"city\":\"Chicago\",\"state\":\"IL\",\"zip\":\"60632\"}"
  },
  "sunday_close" : "CLOSED",
  "hours_of_operation" : "M, W: 10am-6pm;  Tu, Th: 12pm-8pm; F, Sa: 9am-5pm; Su: Closed",
  "tuesday_open" : "12:00PM",
  "state" : "IL",
  "thursday_open" : "12:00PM",
  "wednesday_close" : "6:00PM",
  "name" : "Gage Park",
  "wednesday_open" : "10:00AM",
  "city" : "Chicago",
  "sunday_open" : "CLOSED",
  "monday_close" : "6:00PM",
  "tuesday_close" : "8:00PM",
  "address" : "2807 W 55th St",
  "monday_open" : "10:00AM",
  "saturday_open" : "9:00AM",
  "site_type" : "Library",
  "friday_close" : "5:00PM",
  "saturday_close" : "5:00PM"
}
, {
  "thursday_close" : "6:00PM",
  "zip_code" : "60707",
  "phone" : "(312) 746-0165",
  "friday_open" : "9:00AM",
  "location" : {
    "needs_recoding" : false,
    "longitude" : "-87.79728784408778",
    "latitude" : "41.92109609237066",
    "human_address" : "{\"address\":\"6871 W Belden Ave\",\"city\":\"Chicago\",\"state\":\"IL\",\"zip\":\"60707\"}"
  },
  "sunday_close" : "CLOSED",
  "hours_of_operation" : "M-th: 10am-6pm; F: 9am-5pm; Sa, Su: Closed",
  "tuesday_open" : "10:00AM",
  "state" : "IL",
  "thursday_open" : "10:00AM",
  "wednesday_close" : "6:00PM",
  "name" : "Galewood-Mont Clare",
  "wednesday_open" : "10:00AM",
  "city" : "Chicago",
  "sunday_open" : "CLOSED",
  "monday_close" : "6:00PM",
  "tuesday_close" : "6:00PM",
  "address" : "6871 W Belden Ave",
  "monday_open" : "10:00AM",
  "saturday_open" : "CLOSED",
  "site_type" : "Library",
  "friday_close" : "5:00PM",
  "saturday_close" : "CLOSED"
}
, {
  "thursday_close" : "8:00PM",
  "zip_code" : "60638",
  "phone" : "(312) 747-6094",
  "friday_open" : "9:00AM",
  "location" : {
    "needs_recoding" : false,
    "longitude" : "-87.78018573538776",
    "latitude" : "41.79281923599342",
    "human_address" : "{\"address\":\"6348 S Archer Ave\",\"city\":\"Chicago\",\"state\":\"IL\",\"zip\":\"60638\"}"
  },
  "sunday_close" : "CLOSED",
  "hours_of_operation" : "M, W: 10am-6pm;  Tu, Th: 12pm-8pm; F, Sa: 9am-5pm; Su: Closed",
  "tuesday_open" : "12:00PM",
  "state" : "IL",
  "thursday_open" : "12:00PM",
  "wednesday_close" : "6:00PM",
  "name" : "Garfield Ridge",
  "wednesday_open" : "10:00AM",
  "city" : "Chicago",
  "sunday_open" : "CLOSED",
  "monday_close" : "6:00PM",
  "tuesday_close" : "8:00PM",
  "address" : "6348 S Archer Ave",
  "monday_open" : "10:00AM",
  "saturday_open" : "9:00AM",
  "site_type" : "Library",
  "friday_close" : "5:00PM",
  "saturday_close" : "5:00PM"
}
, {
  "thursday_close" : "6:00PM",
  "zip_code" : "60619",
  "phone" : "(312) 745-1608",
  "friday_open" : "9:00AM",
  "location" : {
    "needs_recoding" : false,
    "longitude" : "-87.60040226851038",
    "latitude" : "41.76231423275959",
    "human_address" : "{\"address\":\"1000 East 73rd St\",\"city\":\"Chicago\",\"state\":\"IL\",\"zip\":\"60619\"}"
  },
  "sunday_close" : "CLOSED",
  "hours_of_operation" : "M, W: 12pm-8pm; Tu, Th: 10am-6pm; F, Sa: 9am-5pm; Su: Closed",
  "tuesday_open" : "10:00AM",
  "state" : "IL",
  "thursday_open" : "10:00AM",
  "wednesday_close" : "8:00PM",
  "name" : "Greater Grand Crossing",
  "wednesday_open" : "12:00PM",
  "city" : "Chicago",
  "sunday_open" : "CLOSED",
  "monday_close" : "8:00PM",
  "tuesday_close" : "6:00PM",
  "address" : "1000 East 73rd St",
  "monday_open" : "12:00PM",
  "saturday_open" : "9:00AM",
  "site_type" : "Library",
  "friday_close" : "5:00PM",
  "saturday_close" : "5:00PM"
}
, {
  "thursday_close" : "8:00PM",
  "zip_code" : "60615",
  "phone" : "(312) 747-2541",
  "friday_open" : "9:00AM",
  "location" : {
    "needs_recoding" : false,
    "longitude" : "-87.62272923100159",
    "latitude" : "41.80740636174217",
    "human_address" : "{\"address\":\"4801 S Michigan Ave\",\"city\":\"Chicago\",\"state\":\"IL\",\"zip\":\"60615\"}"
  },
  "sunday_close" : "CLOSED",
  "hours_of_operation" : "M, W: 10am-6pm;  Tu, Th: 12pm-8pm; F, Sa: 9am-5pm; Su: Closed",
  "tuesday_open" : "12:00PM",
  "state" : "IL",
  "thursday_open" : "12:00PM",
  "wednesday_close" : "6:00PM",
  "name" : "Hall",
  "wednesday_open" : "10:00AM",
  "city" : "Chicago",
  "sunday_open" : "CLOSED",
  "monday_close" : "6:00PM",
  "tuesday_close" : "8:00PM",
  "address" : "4801 S Michigan Ave",
  "monday_open" : "10:00AM",
  "saturday_open" : "9:00AM",
  "site_type" : "Library",
  "friday_close" : "5:00PM",
  "saturday_close" : "5:00PM"
}
, {
  "thursday_close" : "9:00PM",
  "zip_code" : "60605",
  "phone" : "(312) 747-4300",
  "friday_open" : "9:00AM",
  "location" : {
    "needs_recoding" : false,
    "longitude" : "-87.6277248103858",
    "latitude" : "41.876895532791686",
    "human_address" : "{\"address\":\"400 S State St\",\"city\":\"Chicago\",\"state\":\"IL\",\"zip\":\"60605\"}"
  },
  "sunday_close" : "5:00PM",
  "hours_of_operation" : "M-th: 9am-9pm; F, Sa: 9am-5pm; Su: 1pm-5pm",
  "tuesday_open" : "9:00AM",
  "state" : "IL",
  "thursday_open" : "9:00AM",
  "wednesday_close" : "9:00PM",
  "name" : "Harold Washington-HWLC",
  "wednesday_open" : "9:00AM",
  "city" : "Chicago",
  "sunday_open" : "1:00PM",
  "monday_close" : "9:00PM",
  "tuesday_close" : "9:00PM",
  "address" : "400 S State St",
  "monday_open" : "9:00AM",
  "saturday_open" : "9:00AM",
  "site_type" : "Library",
  "friday_close" : "5:00PM",
  "saturday_close" : "5:00PM"
}
, {
  "thursday_close" : "8:00PM",
  "zip_code" : "60633",
  "phone" : "(312) 747-0046",
  "friday_open" : "9:00AM",
  "location" : {
    "needs_recoding" : false,
    "longitude" : "-87.54920989297193",
    "latitude" : "41.65923625090685",
    "human_address" : "{\"address\":\"3048 E 130th St\",\"city\":\"Chicago\",\"state\":\"IL\",\"zip\":\"60633\"}"
  },
  "sunday_close" : "CLOSED",
  "hours_of_operation" : "M, W: 10am-6pm;  Tu, Th: 12pm-8pm; F, Sa: 9am-5pm; Su: Closed",
  "tuesday_open" : "12:00PM",
  "state" : "IL",
  "thursday_open" : "12:00PM",
  "wednesday_close" : "6:00PM",
  "name" : "Hegewisch",
  "wednesday_open" : "10:00AM",
  "city" : "Chicago",
  "sunday_open" : "CLOSED",
  "monday_close" : "6:00PM",
  "tuesday_close" : "8:00PM",
  "address" : "3048 E 130th St",
  "monday_open" : "10:00AM",
  "saturday_open" : "9:00AM",
  "site_type" : "Library",
  "friday_close" : "5:00PM",
  "saturday_close" : "5:00PM"
}
, {
  "thursday_close" : "8:00PM",
  "zip_code" : "60618",
  "phone" : "(312) 744-0900",
  "friday_open" : "9:00AM",
  "location" : {
    "needs_recoding" : false,
    "longitude" : "-87.71691771117403",
    "latitude" : "41.95384370879839",
    "human_address" : "{\"address\":\"3548 W Irving Park Rd\",\"city\":\"Chicago\",\"state\":\"IL\",\"zip\":\"60618\"}"
  },
  "sunday_close" : "CLOSED",
  "hours_of_operation" : "M, W: 10am-6pm;  Tu, Th: 12pm-8pm; F, Sa: 9am-5pm; Su: Closed",
  "tuesday_open" : "12:00PM",
  "state" : "IL",
  "thursday_open" : "12:00PM",
  "wednesday_close" : "6:00PM",
  "name" : "Independence",
  "wednesday_open" : "10:00AM",
  "city" : "Chicago",
  "sunday_open" : "CLOSED",
  "monday_close" : "6:00PM",
  "tuesday_close" : "8:00PM",
  "address" : "3548 W Irving Park Rd",
  "monday_open" : "10:00AM",
  "saturday_open" : "9:00AM",
  "site_type" : "Library",
  "friday_close" : "5:00PM",
  "saturday_close" : "5:00PM"
}
, {
  "thursday_close" : "8:00PM",
  "zip_code" : "60630",
  "phone" : "(312) 744-1998",
  "friday_open" : "9:00AM",
  "location" : {
    "needs_recoding" : false,
    "longitude" : "-87.76172176849617",
    "latitude" : "41.967562324592144",
    "human_address" : "{\"address\":\"5363 W Lawrence Ave\",\"city\":\"Chicago\",\"state\":\"IL\",\"zip\":\"60630\"}"
  },
  "sunday_close" : "CLOSED",
  "hours_of_operation" : "M, W: 10am-6pm;  Tu, Th: 12pm-8pm; F, Sa: 9am-5pm; Su: Closed",
  "tuesday_open" : "12:00PM",
  "state" : "IL",
  "thursday_open" : "12:00PM",
  "wednesday_close" : "6:00PM",
  "name" : "Jefferson Park",
  "wednesday_open" : "10:00AM",
  "city" : "Chicago",
  "sunday_open" : "CLOSED",
  "monday_close" : "6:00PM",
  "tuesday_close" : "8:00PM",
  "address" : "5363 W Lawrence Ave",
  "monday_open" : "10:00AM",
  "saturday_open" : "9:00AM",
  "site_type" : "Library",
  "friday_close" : "5:00PM",
  "saturday_close" : "5:00PM"
}
, {
  "thursday_close" : "8:00PM",
  "zip_code" : "60617",
  "phone" : "(312) 747-6479",
  "friday_open" : "9:00AM",
  "location" : {
    "needs_recoding" : false,
    "longitude" : "-87.5654186415706",
    "latitude" : "41.713490039788894",
    "human_address" : "{\"address\":\"2401 E 100th St\",\"city\":\"Chicago\",\"state\":\"IL\",\"zip\":\"60617\"}"
  },
  "sunday_close" : "CLOSED",
  "hours_of_operation" : "M, W: 10am-6pm;  Tu, Th: 12pm-8pm; F, Sa: 9am-5pm; Su: Closed",
  "tuesday_open" : "12:00PM",
  "state" : "IL",
  "thursday_open" : "12:00PM",
  "wednesday_close" : "6:00PM",
  "name" : "Jeffery Manor",
  "wednesday_open" : "10:00AM",
  "city" : "Chicago",
  "sunday_open" : "CLOSED",
  "monday_close" : "6:00PM",
  "tuesday_close" : "8:00PM",
  "address" : "2401 E 100th St",
  "monday_open" : "10:00AM",
  "saturday_open" : "9:00AM",
  "site_type" : "Library",
  "friday_close" : "5:00PM",
  "saturday_close" : "5:00PM"
}
, {
  "thursday_close" : "8:00PM",
  "zip_code" : "60621",
  "phone" : "(312) 747-8418",
  "friday_open" : "9:00AM",
  "location" : {
    "needs_recoding" : false,
    "longitude" : "-87.63746875075267",
    "latitude" : "41.782343495330295",
    "human_address" : "{\"address\":\"6151 S Normal Blvd\",\"city\":\"Chicago\",\"state\":\"IL\",\"zip\":\"60621\"}"
  },
  "sunday_close" : "CLOSED",
  "hours_of_operation" : "M, W: 10am-6pm;  Tu, Th: 12pm-8pm; F, Sa: 9am-5pm; Su: Closed",
  "tuesday_open" : "12:00PM",
  "state" : "IL",
  "thursday_open" : "12:00PM",
  "wednesday_close" : "6:00PM",
  "name" : "Kelly",
  "wednesday_open" : "10:00AM",
  "city" : "Chicago",
  "sunday_open" : "CLOSED",
  "monday_close" : "6:00PM",
  "tuesday_close" : "8:00PM",
  "address" : "6151 S Normal Blvd",
  "monday_open" : "10:00AM",
  "saturday_open" : "9:00AM",
  "site_type" : "Library",
  "friday_close" : "5:00PM",
  "saturday_close" : "5:00PM"
}
, {
  "thursday_close" : "8:00PM",
  "zip_code" : "60616",
  "phone" : "(312) 747-7543",
  "friday_open" : "9:00AM",
  "location" : {
    "needs_recoding" : false,
    "longitude" : "-87.61739931187078",
    "latitude" : "41.83225513635272",
    "human_address" : "{\"address\":\"3436 S King Drive\",\"city\":\"Chicago\",\"state\":\"IL\",\"zip\":\"60616\"}"
  },
  "sunday_close" : "CLOSED",
  "hours_of_operation" : "M, W: 10am-6pm;  Tu, Th: 12pm-8pm; F, Sa: 9am-5pm; Su: Closed",
  "tuesday_open" : "12:00PM",
  "state" : "IL",
  "thursday_open" : "12:00PM",
  "wednesday_close" : "6:00PM",
  "name" : "King",
  "wednesday_open" : "10:00AM",
  "city" : "Chicago",
  "sunday_open" : "CLOSED",
  "monday_close" : "6:00PM",
  "tuesday_close" : "8:00PM",
  "address" : "3436 S King Drive",
  "monday_open" : "10:00AM",
  "saturday_open" : "9:00AM",
  "site_type" : "Library",
  "friday_close" : "5:00PM",
  "saturday_close" : "5:00PM"
}
, {
  "thursday_close" : "6:00PM",
  "zip_code" : "60624",
  "phone" : "(312) 746-7730",
  "friday_open" : "9:00AM",
  "location" : {
    "needs_recoding" : false,
    "longitude" : "-87.7255367645667",
    "latitude" : "41.87930825979932",
    "human_address" : "{\"address\":\"115 S Pulaski Rd\",\"city\":\"Chicago\",\"state\":\"IL\",\"zip\":\"60624\"}"
  },
  "sunday_close" : "CLOSED",
  "hours_of_operation" : "M, W: 12pm-8pm; Tu, Th: 10am-6pm; F, Sa: 9am-5pm; Su: Closed",
  "tuesday_open" : "10:00AM",
  "state" : "IL",
  "thursday_open" : "10:00AM",
  "wednesday_close" : "8:00PM",
  "name" : "Legler",
  "wednesday_open" : "12:00PM",
  "city" : "Chicago",
  "sunday_open" : "CLOSED",
  "monday_close" : "8:00PM",
  "tuesday_close" : "6:00PM",
  "address" : "115 S Pulaski Rd",
  "monday_open" : "12:00PM",
  "saturday_open" : "9:00AM",
  "site_type" : "Library",
  "friday_close" : "5:00PM",
  "saturday_close" : "5:00PM"
}
, {
  "thursday_close" : "8:00PM",
  "zip_code" : "60657",
  "phone" : "(312) 744-0166",
  "friday_open" : "9:00AM",
  "location" : {
    "needs_recoding" : false,
    "longitude" : "-87.67026591076159",
    "latitude" : "41.94051995055977",
    "human_address" : "{\"address\":\"1659 W Melrose St\",\"city\":\"Chicago\",\"state\":\"IL\",\"zip\":\"60657\"}"
  },
  "sunday_close" : "CLOSED",
  "hours_of_operation" : "M, W: 10am-6pm;  Tu, Th: 12pm-8pm; F, Sa: 9am-5pm; Su: Closed",
  "tuesday_open" : "12:00PM",
  "state" : "IL",
  "thursday_open" : "12:00PM",
  "wednesday_close" : "6:00PM",
  "name" : "Lincoln Belmont",
  "wednesday_open" : "10:00AM",
  "city" : "Chicago",
  "sunday_open" : "CLOSED",
  "monday_close" : "6:00PM",
  "tuesday_close" : "8:00PM",
  "address" : "1659 W Melrose St",
  "monday_open" : "10:00AM",
  "saturday_open" : "9:00AM",
  "site_type" : "Library",
  "friday_close" : "5:00PM",
  "saturday_close" : "5:00PM"
}
, {
  "thursday_close" : "8:00PM",
  "zip_code" : "60614",
  "phone" : "(312) 744-1926",
  "friday_open" : "9:00AM",
  "location" : {
    "needs_recoding" : false,
    "longitude" : "-87.65806679702911",
    "latitude" : "41.9253163505702",
    "human_address" : "{\"address\":\"1150 W Fullerton Ave\",\"city\":\"Chicago\",\"state\":\"IL\",\"zip\":\"60614\"}"
  },
  "sunday_close" : "CLOSED",
  "hours_of_operation" : "M, W: 10am-6pm;  Tu, Th: 12pm-8pm; F, Sa: 9am-5pm; Su: Closed",
  "tuesday_open" : "12:00PM",
  "state" : "IL",
  "thursday_open" : "12:00PM",
  "wednesday_close" : "6:00PM",
  "name" : "Lincoln Park",
  "wednesday_open" : "10:00AM",
  "city" : "Chicago",
  "sunday_open" : "CLOSED",
  "monday_close" : "6:00PM",
  "tuesday_close" : "8:00PM",
  "address" : "1150 W Fullerton Ave",
  "monday_open" : "10:00AM",
  "saturday_open" : "9:00AM",
  "site_type" : "Library",
  "friday_close" : "5:00PM",
  "saturday_close" : "5:00PM"
}
, {
  "thursday_close" : "8:00PM",
  "zip_code" : "60623",
  "phone" : "(312) 745-1862",
  "friday_open" : "9:00AM",
  "location" : {
    "needs_recoding" : false,
    "longitude" : "-87.70511291339608",
    "latitude" : "41.84967263862272",
    "human_address" : "{\"address\":\"2311 S Kedzie Ave\",\"city\":\"Chicago\",\"state\":\"IL\",\"zip\":\"60623\"}"
  },
  "sunday_close" : "CLOSED",
  "hours_of_operation" : "M, W: 10am-6pm;  Tu, Th: 12pm-8pm; F, Sa: 9am-5pm; Su: Closed",
  "tuesday_open" : "12:00PM",
  "state" : "IL",
  "thursday_open" : "12:00PM",
  "wednesday_close" : "6:00PM",
  "name" : "Little Village",
  "wednesday_open" : "10:00AM",
  "city" : "Chicago",
  "sunday_open" : "CLOSED",
  "monday_close" : "6:00PM",
  "tuesday_close" : "8:00PM",
  "address" : "2311 S Kedzie Ave",
  "monday_open" : "10:00AM",
  "saturday_open" : "9:00AM",
  "site_type" : "Library",
  "friday_close" : "5:00PM",
  "saturday_close" : "5:00PM"
}
, {
  "thursday_close" : "8:00PM",
  "zip_code" : "60647",
  "phone" : "(312) 744-5295",
  "friday_open" : "9:00AM",
  "location" : {
    "needs_recoding" : false,
    "longitude" : "-87.70341960696669",
    "latitude" : "41.92478575057294",
    "human_address" : "{\"address\":\"3030 W Fullerton Ave\",\"city\":\"Chicago\",\"state\":\"IL\",\"zip\":\"60647\"}"
  },
  "sunday_close" : "CLOSED",
  "hours_of_operation" : "M, W: 10am-6pm;  Tu, Th: 12pm-8pm; F, Sa: 9am-5pm; Su: Closed",
  "tuesday_open" : "12:00PM",
  "state" : "IL",
  "thursday_open" : "12:00PM",
  "wednesday_close" : "6:00PM",
  "name" : "Logan Square",
  "wednesday_open" : "10:00AM",
  "city" : "Chicago",
  "sunday_open" : "CLOSED",
  "monday_close" : "6:00PM",
  "tuesday_close" : "8:00PM",
  "address" : "3030 W Fullerton Ave",
  "monday_open" : "10:00AM",
  "saturday_open" : "9:00AM",
  "site_type" : "Library",
  "friday_close" : "5:00PM",
  "saturday_close" : "5:00PM"
}
, {
  "thursday_close" : "8:00PM",
  "zip_code" : "60608",
  "phone" : "(312) 746-4329",
  "friday_open" : "9:00AM",
  "location" : {
    "needs_recoding" : false,
    "longitude" : "-87.66122498707978",
    "latitude" : "41.857820778174656",
    "human_address" : "{\"address\":\"1805 S Loomis St\",\"city\":\"Chicago\",\"state\":\"IL\",\"zip\":\"60608\"}"
  },
  "sunday_close" : "CLOSED",
  "hours_of_operation" : "M, W: 10am-6pm;  Tu, Th: 12pm-8pm; F, Sa: 9am-5pm; Su: Closed",
  "tuesday_open" : "12:00PM",
  "state" : "IL",
  "thursday_open" : "12:00PM",
  "wednesday_close" : "6:00PM",
  "name" : "Lozano",
  "wednesday_open" : "10:00AM",
  "city" : "Chicago",
  "sunday_open" : "CLOSED",
  "monday_close" : "6:00PM",
  "tuesday_close" : "8:00PM",
  "address" : "1805 S Loomis St",
  "monday_open" : "10:00AM",
  "saturday_open" : "9:00AM",
  "site_type" : "Library",
  "friday_close" : "5:00PM",
  "saturday_close" : "5:00PM"
}
, {
  "thursday_close" : "6:00PM",
  "zip_code" : "60612",
  "phone" : "(312) 746-6800",
  "friday_open" : "9:00AM",
  "location" : {
    "needs_recoding" : false,
    "longitude" : "-87.67916344433422",
    "latitude" : "41.88117718045707",
    "human_address" : "{\"address\":\"6 S Hoyne Ave\",\"city\":\"Chicago\",\"state\":\"IL\",\"zip\":\"60612\"}"
  },
  "sunday_close" : "CLOSED",
  "hours_of_operation" : "M, W: 12pm-8pm; Tu, Th: 10am-6pm; F, Sa: 9am-5pm; Su: Closed",
  "tuesday_open" : "10:00AM",
  "state" : "IL",
  "thursday_open" : "10:00AM",
  "wednesday_close" : "8:00PM",
  "name" : "Manning",
  "wednesday_open" : "12:00PM",
  "city" : "Chicago",
  "sunday_open" : "CLOSED",
  "monday_close" : "8:00PM",
  "tuesday_close" : "6:00PM",
  "address" : "6 S Hoyne Ave",
  "monday_open" : "12:00PM",
  "saturday_open" : "9:00AM",
  "site_type" : "Library",
  "friday_close" : "5:00PM",
  "saturday_close" : "5:00PM"
}
, {
  "thursday_close" : "6:00PM",
  "zip_code" : "60630",
  "phone" : "(312) 744-1254",
  "friday_open" : "9:00AM",
  "location" : {
    "needs_recoding" : false,
    "longitude" : "-87.73825034916149",
    "latitude" : "41.968151058825754",
    "human_address" : "{\"address\":\"4400 W Lawrence Ave\",\"city\":\"Chicago\",\"state\":\"IL\",\"zip\":\"60630\"}"
  },
  "sunday_close" : "CLOSED",
  "hours_of_operation" : "M, W: 12pm-8pm; Tu, Th: 10am-6pm; F, Sa: 9am-5pm; Su: Closed",
  "tuesday_open" : "10:00AM",
  "state" : "IL",
  "thursday_open" : "10:00AM",
  "wednesday_close" : "8:00PM",
  "name" : "Mayfair",
  "wednesday_open" : "12:00PM",
  "city" : "Chicago",
  "sunday_open" : "CLOSED",
  "monday_close" : "8:00PM",
  "tuesday_close" : "6:00PM",
  "address" : "4400 W Lawrence Ave",
  "monday_open" : "12:00PM",
  "saturday_open" : "9:00AM",
  "site_type" : "Library",
  "friday_close" : "5:00PM",
  "saturday_close" : "5:00PM"
}
, {
  "thursday_close" : "6:00PM",
  "zip_code" : "60609",
  "phone" : "(312) 747-6082",
  "friday_open" : "9:00AM",
  "location" : {
    "needs_recoding" : false,
    "longitude" : "-87.67343099318283",
    "latitude" : "41.83035158005777",
    "human_address" : "{\"address\":\"1915 W 35th St\",\"city\":\"Chicago\",\"state\":\"IL\",\"zip\":\"60609\"}"
  },
  "sunday_close" : "CLOSED",
  "hours_of_operation" : "M, W: 12pm-8pm; Tu, Th: 10am-6pm; F, Sa: 9am-5pm; Su: Closed",
  "tuesday_open" : "10:00AM",
  "state" : "IL",
  "thursday_open" : "10:00AM",
  "wednesday_close" : "8:00PM",
  "name" : "McKinley Park",
  "wednesday_open" : "12:00PM",
  "city" : "Chicago",
  "sunday_open" : "CLOSED",
  "monday_close" : "8:00PM",
  "tuesday_close" : "6:00PM",
  "address" : "1915 W 35th St",
  "monday_open" : "12:00PM",
  "saturday_open" : "9:00AM",
  "site_type" : "Library",
  "friday_close" : "5:00PM",
  "saturday_close" : "5:00PM"
}
, {
  "thursday_close" : "6:00PM",
  "zip_code" : "60657",
  "phone" : "(312) 744-1139",
  "friday_open" : "9:00AM",
  "location" : {
    "needs_recoding" : false,
    "longitude" : "-87.64568431625388",
    "latitude" : "41.94009280245566",
    "human_address" : "{\"address\":\"644 W Belmont Ave\",\"city\":\"Chicago\",\"state\":\"IL\",\"zip\":\"60657\"}"
  },
  "sunday_close" : "CLOSED",
  "hours_of_operation" : "M, W: 12pm-8pm; Tu, Th: 10am-6pm; F, Sa: 9am-5pm; Su: Closed",
  "tuesday_open" : "10:00AM",
  "state" : "IL",
  "thursday_open" : "10:00AM",
  "wednesday_close" : "8:00PM",
  "name" : "Merlo",
  "wednesday_open" : "12:00PM",
  "city" : "Chicago",
  "sunday_open" : "CLOSED",
  "monday_close" : "8:00PM",
  "tuesday_close" : "6:00PM",
  "address" : "644 W Belmont Ave",
  "monday_open" : "12:00PM",
  "saturday_open" : "9:00AM",
  "site_type" : "Library",
  "friday_close" : "5:00PM",
  "saturday_close" : "5:00PM"
}
, {
  "thursday_close" : "8:00PM",
  "zip_code" : "60655",
  "phone" : "(312) 747-2805",
  "friday_open" : "9:00AM",
  "location" : {
    "needs_recoding" : false,
    "longitude" : "-87.70091049850498",
    "latitude" : "41.69298549752085",
    "human_address" : "{\"address\":\"11010 S Kedzie Ave\",\"city\":\"Chicago\",\"state\":\"IL\",\"zip\":\"60655\"}"
  },
  "sunday_close" : "CLOSED",
  "hours_of_operation" : "M, W: 10am-6pm;  Tu, Th: 12pm-8pm; F, Sa: 9am-5pm; Su: Closed",
  "tuesday_open" : "12:00PM",
  "state" : "IL",
  "thursday_open" : "12:00PM",
  "wednesday_close" : "6:00PM",
  "name" : "Mount Greenwood",
  "wednesday_open" : "10:00AM",
  "city" : "Chicago",
  "sunday_open" : "CLOSED",
  "monday_close" : "6:00PM",
  "tuesday_close" : "8:00PM",
  "address" : "11010 S Kedzie Ave",
  "monday_open" : "10:00AM",
  "saturday_open" : "9:00AM",
  "site_type" : "Library",
  "friday_close" : "5:00PM",
  "saturday_close" : "5:00PM"
}
, {
  "thursday_close" : "6:00PM",
  "zip_code" : "60610",
  "phone" : "(312) 744-0991",
  "friday_open" : "9:00AM",
  "location" : {
    "needs_recoding" : false,
    "longitude" : "-87.6369110556418",
    "latitude" : "41.90383476840986",
    "human_address" : "{\"address\":\"310 W Division St\",\"city\":\"Chicago\",\"state\":\"IL\",\"zip\":\"60610\"}"
  },
  "sunday_close" : "CLOSED",
  "hours_of_operation" : "M, W: 12pm-8pm; Tu, Th: 10am-6pm; F, Sa: 9am-5pm; Su: Closed",
  "tuesday_open" : "10:00AM",
  "state" : "IL",
  "thursday_open" : "10:00AM",
  "wednesday_close" : "8:00PM",
  "name" : "Near North",
  "wednesday_open" : "12:00PM",
  "city" : "Chicago",
  "sunday_open" : "CLOSED",
  "monday_close" : "8:00PM",
  "tuesday_close" : "6:00PM",
  "address" : "310 W Division St",
  "monday_open" : "12:00PM",
  "saturday_open" : "9:00AM",
  "site_type" : "Library",
  "friday_close" : "5:00PM",
  "saturday_close" : "5:00PM"
}
, {
  "thursday_close" : "6:00PM",
  "zip_code" : "60639",
  "phone" : "(312) 746-4233",
  "friday_open" : "9:00AM",
  "location" : {
    "needs_recoding" : false,
    "longitude" : "-87.76886746051726",
    "latitude" : "41.909385967328426",
    "human_address" : "{\"address\":\"5724 W North Ave\",\"city\":\"Chicago\",\"state\":\"IL\",\"zip\":\"60639\"}"
  },
  "sunday_close" : "CLOSED",
  "hours_of_operation" : "M, W: 12pm-8pm; Tu, Th: 10am-6pm; F, Sa: 9am-5pm; Su: Closed",
  "tuesday_open" : "10:00AM",
  "state" : "IL",
  "thursday_open" : "10:00AM",
  "wednesday_close" : "8:00PM",
  "name" : "North Austin",
  "wednesday_open" : "12:00PM",
  "city" : "Chicago",
  "sunday_open" : "CLOSED",
  "monday_close" : "8:00PM",
  "tuesday_close" : "6:00PM",
  "address" : "5724 W North Ave",
  "monday_open" : "12:00PM",
  "saturday_open" : "9:00AM",
  "site_type" : "Library",
  "friday_close" : "5:00PM",
  "saturday_close" : "5:00PM"
}
, {
  "thursday_close" : "8:00PM",
  "zip_code" : "60639",
  "phone" : "(312) 744-9573",
  "friday_open" : "9:00AM",
  "location" : {
    "needs_recoding" : false,
    "longitude" : "-87.73432031189344",
    "latitude" : "41.90982103200537",
    "human_address" : "{\"address\":\"4300 W North Ave\",\"city\":\"Chicago\",\"state\":\"IL\",\"zip\":\"60639\"}"
  },
  "sunday_close" : "CLOSED",
  "hours_of_operation" : "M, W: 10am-6pm;  Tu, Th: 12pm-8pm; F, Sa: 9am-5pm; Su: Closed",
  "tuesday_open" : "12:00PM",
  "state" : "IL",
  "thursday_open" : "12:00PM",
  "wednesday_close" : "6:00PM",
  "name" : "North Pulaski",
  "wednesday_open" : "10:00AM",
  "city" : "Chicago",
  "sunday_open" : "CLOSED",
  "monday_close" : "6:00PM",
  "tuesday_close" : "8:00PM",
  "address" : "4300 W North Ave",
  "monday_open" : "10:00AM",
  "saturday_open" : "9:00AM",
  "site_type" : "Library",
  "friday_close" : "5:00PM",
  "saturday_close" : "5:00PM"
}
, {
  "thursday_close" : "8:00PM",
  "zip_code" : "60645",
  "phone" : "(312) 744-2292",
  "friday_open" : "9:00AM",
  "location" : {
    "needs_recoding" : false,
    "longitude" : "-87.69958791971804",
    "latitude" : "41.998212242087206",
    "human_address" : "{\"address\":\"6435 N California Ave\",\"city\":\"Chicago\",\"state\":\"IL\",\"zip\":\"60645\"}"
  },
  "sunday_close" : "CLOSED",
  "hours_of_operation" : "M, W: 10am-6pm;  Tu, Th: 12pm-8pm; F, Sa: 9am-5pm; Su: Closed",
  "tuesday_open" : "12:00PM",
  "state" : "IL",
  "thursday_open" : "12:00PM",
  "wednesday_close" : "6:00PM",
  "name" : "Northtown",
  "wednesday_open" : "10:00AM",
  "city" : "Chicago",
  "sunday_open" : "CLOSED",
  "monday_close" : "6:00PM",
  "tuesday_close" : "8:00PM",
  "address" : "6435 N California Ave",
  "monday_open" : "10:00AM",
  "saturday_open" : "9:00AM",
  "site_type" : "Library",
  "friday_close" : "5:00PM",
  "saturday_close" : "5:00PM"
}
, {
  "thursday_close" : "6:00PM",
  "zip_code" : "60656",
  "phone" : "(312) 744-1965",
  "friday_open" : "9:00AM",
  "location" : {
    "needs_recoding" : false,
    "longitude" : "-87.81330682610985",
    "latitude" : "41.97806049179239",
    "human_address" : "{\"address\":\"7454 W Balmoral Ave\",\"city\":\"Chicago\",\"state\":\"IL\",\"zip\":\"60656\"}"
  },
  "sunday_close" : "CLOSED",
  "hours_of_operation" : "M, W: 12pm-8pm; Tu, Th: 10am-6pm; F, Sa: 9am-5pm; Su: Closed",
  "tuesday_open" : "10:00AM",
  "state" : "IL",
  "thursday_open" : "10:00AM",
  "wednesday_close" : "8:00PM",
  "name" : "Oriole Park",
  "wednesday_open" : "12:00PM",
  "city" : "Chicago",
  "sunday_open" : "CLOSED",
  "monday_close" : "8:00PM",
  "tuesday_close" : "6:00PM",
  "address" : "7454 W Balmoral Ave",
  "monday_open" : "12:00PM",
  "saturday_open" : "9:00AM",
  "site_type" : "Library",
  "friday_close" : "5:00PM",
  "saturday_close" : "5:00PM"
}
, {
  "thursday_close" : "6:00PM",
  "zip_code" : "60641",
  "phone" : "(312) 744-0152",
  "friday_open" : "9:00AM",
  "location" : {
    "needs_recoding" : false,
    "longitude" : "-87.75463221938679",
    "latitude" : "41.938785132222925",
    "human_address" : "{\"address\":\"5108 W Belmont Ave\",\"city\":\"Chicago\",\"state\":\"IL\",\"zip\":\"60641\"}"
  },
  "sunday_close" : "CLOSED",
  "hours_of_operation" : "M, W: 12pm-8pm; Tu, Th: 10am-6pm; F, Sa: 9am-5pm; Su: Closed",
  "tuesday_open" : "10:00AM",
  "state" : "IL",
  "thursday_open" : "10:00AM",
  "wednesday_close" : "8:00PM",
  "name" : "Portage-Cragin",
  "wednesday_open" : "12:00PM",
  "city" : "Chicago",
  "sunday_open" : "CLOSED",
  "monday_close" : "8:00PM",
  "tuesday_close" : "6:00PM",
  "address" : "5108 W Belmont Ave",
  "monday_open" : "12:00PM",
  "saturday_open" : "9:00AM",
  "site_type" : "Library",
  "friday_close" : "5:00PM",
  "saturday_close" : "5:00PM"
}
, {
  "thursday_close" : "8:00PM",
  "zip_code" : "60628",
  "phone" : "(312) 747-2033",
  "friday_open" : "9:00AM",
  "location" : {
    "needs_recoding" : false,
    "longitude" : "-87.61821423954542",
    "latitude" : "41.6943993478663",
    "human_address" : "{\"address\":\"11001 S Indiana Ave\",\"city\":\"Chicago\",\"state\":\"IL\",\"zip\":\"60628\"}"
  },
  "sunday_close" : "CLOSED",
  "hours_of_operation" : "M, W: 10am-6pm;  Tu, Th: 12pm-8pm; F, Sa: 9am-5pm; Su: Closed",
  "tuesday_open" : "12:00PM",
  "state" : "IL",
  "thursday_open" : "12:00PM",
  "wednesday_close" : "6:00PM",
  "name" : "Pullman",
  "wednesday_open" : "10:00AM",
  "city" : "Chicago",
  "sunday_open" : "CLOSED",
  "monday_close" : "6:00PM",
  "tuesday_close" : "8:00PM",
  "address" : "11001 S Indiana Ave",
  "monday_open" : "10:00AM",
  "saturday_open" : "9:00AM",
  "site_type" : "Library",
  "friday_close" : "5:00PM",
  "saturday_close" : "5:00PM"
}
, {
  "thursday_close" : "8:00PM",
  "zip_code" : "60631",
  "phone" : "(312) 744-1478",
  "friday_open" : "9:00AM",
  "location" : {
    "needs_recoding" : false,
    "longitude" : "-87.79821674928576",
    "latitude" : "41.99195084318547",
    "human_address" : "{\"address\":\"6083 N Northwest Highway\",\"city\":\"Chicago\",\"state\":\"IL\",\"zip\":\"60631\"}"
  },
  "sunday_close" : "CLOSED",
  "hours_of_operation" : "M, W: 10am-6pm;  Tu, Th: 12pm-8pm; F, Sa: 9am-5pm; Su: Closed",
  "tuesday_open" : "12:00PM",
  "state" : "IL",
  "thursday_open" : "12:00PM",
  "wednesday_close" : "6:00PM",
  "name" : "Roden",
  "wednesday_open" : "10:00AM",
  "city" : "Chicago",
  "sunday_open" : "CLOSED",
  "monday_close" : "6:00PM",
  "tuesday_close" : "8:00PM",
  "address" : "6083 N Northwest Highway",
  "monday_open" : "10:00AM",
  "saturday_open" : "9:00AM",
  "site_type" : "Library",
  "friday_close" : "5:00PM",
  "saturday_close" : "5:00PM"
}
, {
  "thursday_close" : "6:00PM",
  "zip_code" : "60626",
  "phone" : "(312) 744-0156",
  "friday_open" : "9:00AM",
  "location" : {
    "needs_recoding" : false,
    "longitude" : "-87.67336257682068",
    "latitude" : "42.006781595898914",
    "human_address" : "{\"address\":\"6907 N Clark St\",\"city\":\"Chicago\",\"state\":\"IL\",\"zip\":\"60626\"}"
  },
  "sunday_close" : "CLOSED",
  "hours_of_operation" : "M, W: 12pm-8pm; Tu, Th: 10am-6pm; F, Sa: 9am-5pm; Su: Closed",
  "tuesday_open" : "10:00AM",
  "state" : "IL",
  "thursday_open" : "10:00AM",
  "wednesday_close" : "8:00PM",
  "name" : "Rogers Park",
  "wednesday_open" : "12:00PM",
  "city" : "Chicago",
  "sunday_open" : "CLOSED",
  "monday_close" : "8:00PM",
  "tuesday_close" : "6:00PM",
  "address" : "6907 N Clark St",
  "monday_open" : "12:00PM",
  "saturday_open" : "9:00AM",
  "site_type" : "Library",
  "friday_close" : "5:00PM",
  "saturday_close" : "5:00PM"
}
, {
  "thursday_close" : "6:00PM",
  "zip_code" : "60607",
  "phone" : "(312) 746-5656",
  "friday_open" : "9:00AM",
  "location" : {
    "needs_recoding" : false,
    "longitude" : "-87.65444252925101",
    "latitude" : "41.86943247966951",
    "human_address" : "{\"address\":\"1101 W Taylor St\",\"city\":\"Chicago\",\"state\":\"IL\",\"zip\":\"60607\"}"
  },
  "sunday_close" : "CLOSED",
  "hours_of_operation" : "M, W: 12pm-8pm; Tu, Th: 10am-6pm; F, Sa: 9am-5pm; Su: Closed",
  "tuesday_open" : "10:00AM",
  "state" : "IL",
  "thursday_open" : "10:00AM",
  "wednesday_close" : "8:00PM",
  "name" : "Roosevelt",
  "wednesday_open" : "12:00PM",
  "city" : "Chicago",
  "sunday_open" : "CLOSED",
  "monday_close" : "8:00PM",
  "tuesday_close" : "6:00PM",
  "address" : "1101 W Taylor St",
  "monday_open" : "12:00PM",
  "saturday_open" : "9:00AM",
  "site_type" : "Library",
  "friday_close" : "5:00PM",
  "saturday_close" : "5:00PM"
}
, {
  "thursday_close" : "8:00PM",
  "zip_code" : "60652",
  "phone" : "(312) 747-0193",
  "friday_open" : "9:00AM",
  "location" : {
    "needs_recoding" : false,
    "longitude" : "-87.72436124811308",
    "latitude" : "41.749352804211014",
    "human_address" : "{\"address\":\"4101 W 79th St\",\"city\":\"Chicago\",\"state\":\"IL\",\"zip\":\"60652\"}"
  },
  "sunday_close" : "CLOSED",
  "hours_of_operation" : "M, W: 10am-6pm;  Tu, Th: 12pm-8pm; F, Sa: 9am-5pm; Su: Closed",
  "tuesday_open" : "12:00PM",
  "state" : "IL",
  "thursday_open" : "12:00PM",
  "wednesday_close" : "6:00PM",
  "name" : "Scottsdale",
  "wednesday_open" : "10:00AM",
  "city" : "Chicago",
  "sunday_open" : "CLOSED",
  "monday_close" : "6:00PM",
  "tuesday_close" : "8:00PM",
  "address" : "4101 W 79th St",
  "monday_open" : "10:00AM",
  "saturday_open" : "9:00AM",
  "site_type" : "Library",
  "friday_close" : "5:00PM",
  "saturday_close" : "5:00PM"
}
, {
  "thursday_close" : "6:00PM",
  "zip_code" : "60609",
  "phone" : "(312) 747-0477",
  "friday_open" : "9:00AM",
  "location" : {
    "needs_recoding" : false,
    "longitude" : "-87.65497322295496",
    "latitude" : "41.79522560459017",
    "human_address" : "{\"address\":\"5440 S Racine Ave\",\"city\":\"Chicago\",\"state\":\"IL\",\"zip\":\"60609\"}"
  },
  "sunday_close" : "CLOSED",
  "hours_of_operation" : "M, W: 12pm-8pm; Tu, Th: 10am-6pm; F, Sa: 9am-5pm; Su: Closed",
  "tuesday_open" : "10:00AM",
  "state" : "IL",
  "thursday_open" : "10:00AM",
  "wednesday_close" : "8:00PM",
  "name" : "Sherman Park",
  "wednesday_open" : "12:00PM",
  "city" : "Chicago",
  "sunday_open" : "CLOSED",
  "monday_close" : "8:00PM",
  "tuesday_close" : "6:00PM",
  "address" : "5440 S Racine Ave",
  "monday_open" : "12:00PM",
  "saturday_open" : "9:00AM",
  "site_type" : "Library",
  "friday_close" : "5:00PM",
  "saturday_close" : "5:00PM"
}
, {
  "thursday_close" : "6:00PM",
  "zip_code" : "60617",
  "phone" : "(312) 747-8065",
  "friday_open" : "9:00AM",
  "location" : {
    "needs_recoding" : false,
    "longitude" : "-87.54977619813424",
    "latitude" : "41.73091178472393",
    "human_address" : "{\"address\":\"9055 S Houston Ave\",\"city\":\"Chicago\",\"state\":\"IL\",\"zip\":\"60617\"}"
  },
  "sunday_close" : "CLOSED",
  "hours_of_operation" : "M, W: 12pm-8pm; Tu, Th: 10am-6pm; F, Sa: 9am-5pm; Su: Closed",
  "tuesday_open" : "10:00AM",
  "state" : "IL",
  "thursday_open" : "10:00AM",
  "wednesday_close" : "8:00PM",
  "name" : "South Chicago",
  "wednesday_open" : "12:00PM",
  "city" : "Chicago",
  "sunday_open" : "CLOSED",
  "monday_close" : "8:00PM",
  "tuesday_close" : "6:00PM",
  "address" : "9055 S Houston Ave",
  "monday_open" : "12:00PM",
  "saturday_open" : "9:00AM",
  "site_type" : "Library",
  "friday_close" : "5:00PM",
  "saturday_close" : "5:00PM"
}
, {
  "thursday_close" : "8:00PM",
  "zip_code" : "60649",
  "phone" : "(312) 747-5281",
  "friday_open" : "9:00AM",
  "location" : {
    "needs_recoding" : false,
    "longitude" : "-87.56213611616369",
    "latitude" : "41.761792625982594",
    "human_address" : "{\"address\":\"2505 E 73rd St\",\"city\":\"Chicago\",\"state\":\"IL\",\"zip\":\"60649\"}"
  },
  "sunday_close" : "CLOSED",
  "hours_of_operation" : "M, W: 10am-6pm;  Tu, Th: 12pm-8pm; F, Sa: 9am-5pm; Su: Closed",
  "tuesday_open" : "12:00PM",
  "state" : "IL",
  "thursday_open" : "12:00PM",
  "wednesday_close" : "6:00PM",
  "name" : "South Shore",
  "wednesday_open" : "10:00AM",
  "city" : "Chicago",
  "sunday_open" : "CLOSED",
  "monday_close" : "6:00PM",
  "tuesday_close" : "8:00PM",
  "address" : "2505 E 73rd St",
  "monday_open" : "10:00AM",
  "saturday_open" : "9:00AM",
  "site_type" : "Library",
  "friday_close" : "5:00PM",
  "saturday_close" : "5:00PM"
}
, {
  "thursday_close" : "9:00PM",
  "zip_code" : "60625",
  "phone" : "(312) 744-7616",
  "friday_open" : "9:00AM",
  "location" : {
    "needs_recoding" : false,
    "longitude" : "-87.68448133764942",
    "latitude" : "41.96250382118604",
    "human_address" : "{\"address\":\"4455 N Lincoln Ave\",\"city\":\"Chicago\",\"state\":\"IL\",\"zip\":\"60625\"}"
  },
  "sunday_close" : "5:00PM",
  "hours_of_operation" : "M-th: 9am-9pm; F, Sa: 9am-5pm; Su: 1pm-5pm",
  "tuesday_open" : "9:00AM",
  "state" : "IL",
  "thursday_open" : "9:00AM",
  "wednesday_close" : "9:00PM",
  "name" : "Sulzer Regional",
  "wednesday_open" : "9:00AM",
  "city" : "Chicago",
  "sunday_open" : "1:00PM",
  "monday_close" : "9:00PM",
  "tuesday_close" : "9:00PM",
  "address" : "4455 N Lincoln Ave",
  "monday_open" : "9:00AM",
  "saturday_open" : "9:00AM",
  "site_type" : "Library",
  "friday_close" : "5:00PM",
  "saturday_close" : "5:00PM"
}
, {
  "thursday_close" : "6:00PM",
  "zip_code" : "60620",
  "phone" : "(312) 747-5927",
  "friday_open" : "9:00AM",
  "location" : {
    "needs_recoding" : false,
    "longitude" : "-87.65398226057334",
    "latitude" : "41.75745172208852",
    "human_address" : "{\"address\":\"7506 S Racine Ave\",\"city\":\"Chicago\",\"state\":\"IL\",\"zip\":\"60620\"}"
  },
  "sunday_close" : "CLOSED",
  "hours_of_operation" : "M, W: 12pm-8pm; Tu, Th: 10am-6pm; F, Sa: 9am-5pm; Su: Closed",
  "tuesday_open" : "10:00AM",
  "state" : "IL",
  "thursday_open" : "10:00AM",
  "wednesday_close" : "8:00PM",
  "name" : "Thurgood Marshall",
  "wednesday_open" : "12:00PM",
  "city" : "Chicago",
  "sunday_open" : "CLOSED",
  "monday_close" : "8:00PM",
  "tuesday_close" : "6:00PM",
  "address" : "7506 S Racine Ave",
  "monday_open" : "12:00PM",
  "saturday_open" : "9:00AM",
  "site_type" : "Library",
  "friday_close" : "5:00PM",
  "saturday_close" : "5:00PM"
}
, {
  "thursday_close" : "6:00PM",
  "zip_code" : "60623",
  "phone" : "(312) 745-1660",
  "friday_open" : "9:00AM",
  "location" : {
    "needs_recoding" : false,
    "longitude" : "-87.72452669499438",
    "latitude" : "41.842057117097625",
    "human_address" : "{\"address\":\"2708 S Pulaski Rd\",\"city\":\"Chicago\",\"state\":\"IL\",\"zip\":\"60623\"}"
  },
  "sunday_close" : "CLOSED",
  "hours_of_operation" : "M, W: 12pm-8pm; Tu, Th: 10am-6pm; F, Sa: 9am-5pm; Su: Closed",
  "tuesday_open" : "10:00AM",
  "state" : "IL",
  "thursday_open" : "10:00AM",
  "wednesday_close" : "8:00PM",
  "name" : "Toman",
  "wednesday_open" : "12:00PM",
  "city" : "Chicago",
  "sunday_open" : "CLOSED",
  "monday_close" : "8:00PM",
  "tuesday_close" : "6:00PM",
  "address" : "2708 S Pulaski Rd",
  "monday_open" : "12:00PM",
  "saturday_open" : "9:00AM",
  "site_type" : "Library",
  "friday_close" : "5:00PM",
  "saturday_close" : "5:00PM"
}
, {
  "thursday_close" : "8:00PM",
  "zip_code" : "60613",
  "phone" : "(312) 744-8400",
  "friday_open" : "9:00AM",
  "location" : {
    "needs_recoding" : false,
    "longitude" : "-87.65349928925056",
    "latitude" : "41.95837819368438",
    "human_address" : "{\"address\":\"929 W Buena Ave\",\"city\":\"Chicago\",\"state\":\"IL\",\"zip\":\"60613\"}"
  },
  "sunday_close" : "CLOSED",
  "hours_of_operation" : "M, W: 10am-6pm;  Tu, Th: 12pm-8pm; F, Sa: 9am-5pm; Su: Closed",
  "tuesday_open" : "12:00PM",
  "state" : "IL",
  "thursday_open" : "12:00PM",
  "wednesday_close" : "6:00PM",
  "name" : "Uptown",
  "wednesday_open" : "10:00AM",
  "city" : "Chicago",
  "sunday_open" : "CLOSED",
  "monday_close" : "6:00PM",
  "tuesday_close" : "8:00PM",
  "address" : "929 W Buena Ave",
  "monday_open" : "10:00AM",
  "saturday_open" : "9:00AM",
  "site_type" : "Library",
  "friday_close" : "5:00PM",
  "saturday_close" : "5:00PM"
}
, {
  "thursday_close" : "6:00PM",
  "zip_code" : "60617",
  "phone" : "(312) 747-5500",
  "friday_open" : "9:00AM",
  "location" : {
    "needs_recoding" : false,
    "longitude" : "-87.53351069597107",
    "latitude" : "41.70277012119965",
    "human_address" : "{\"address\":\"3710 E 106th St\",\"city\":\"Chicago\",\"state\":\"IL\",\"zip\":\"60617\"}"
  },
  "sunday_close" : "CLOSED",
  "hours_of_operation" : "M, W: 12pm-8pm; Tu, Th: 10am-6pm; F, Sa: 9am-5pm; Su: Closed",
  "tuesday_open" : "10:00AM",
  "state" : "IL",
  "thursday_open" : "10:00AM",
  "wednesday_close" : "8:00PM",
  "name" : "Vodak-East Side",
  "wednesday_open" : "12:00PM",
  "city" : "Chicago",
  "sunday_open" : "CLOSED",
  "monday_close" : "8:00PM",
  "tuesday_close" : "6:00PM",
  "address" : "3710 E 106th St",
  "monday_open" : "12:00PM",
  "saturday_open" : "9:00AM",
  "site_type" : "Library",
  "friday_close" : "5:00PM",
  "saturday_close" : "5:00PM"
}
, {
  "thursday_close" : "8:00PM",
  "zip_code" : "60643",
  "phone" : "(312) 747-1920",
  "friday_open" : "9:00AM",
  "location" : {
    "needs_recoding" : false,
    "longitude" : "-87.67413447354456",
    "latitude" : "41.692425806405964",
    "human_address" : "{\"address\":\"11071 S Hoyne Ave\",\"city\":\"Chicago\",\"state\":\"IL\",\"zip\":\"60643\"}"
  },
  "sunday_close" : "CLOSED",
  "hours_of_operation" : "M, W: 10am-6pm;  Tu, Th: 12pm-8pm; F, Sa: 9am-5pm; Su: Closed",
  "tuesday_open" : "12:00PM",
  "state" : "IL",
  "thursday_open" : "12:00PM",
  "wednesday_close" : "6:00PM",
  "name" : "Walker",
  "wednesday_open" : "10:00AM",
  "city" : "Chicago",
  "sunday_open" : "CLOSED",
  "monday_close" : "6:00PM",
  "tuesday_close" : "8:00PM",
  "address" : "11071 S Hoyne Ave",
  "monday_open" : "10:00AM",
  "saturday_open" : "9:00AM",
  "site_type" : "Library",
  "friday_close" : "5:00PM",
  "saturday_close" : "5:00PM"
}
, {
  "thursday_close" : "7:00PM",
  "zip_code" : "60611",
  "phone" : "(312) 742-8811",
  "friday_open" : "9:00AM",
  "location" : {
    "needs_recoding" : false,
    "longitude" : "-87.62299896446554",
    "latitude" : "41.897534902298894",
    "human_address" : "{\"address\":\"163 E Pearson St\",\"city\":\"Chicago\",\"state\":\"IL\",\"zip\":\"60611\"}"
  },
  "sunday_close" : "5:00PM",
  "hours_of_operation" : "M-th: 9am-7pm; F, Sa: 9am-5pm; Su: 1pm-5pm",
  "tuesday_open" : "9:00AM",
  "state" : "IL",
  "thursday_open" : "9:00AM",
  "wednesday_close" : "7:00PM",
  "name" : "Water Works",
  "wednesday_open" : "9:00AM",
  "city" : "Chicago",
  "sunday_open" : "1:00PM",
  "monday_close" : "7:00PM",
  "tuesday_close" : "7:00PM",
  "address" : "163 E Pearson St",
  "monday_open" : "9:00AM",
  "saturday_open" : "9:00AM",
  "site_type" : "Library",
  "friday_close" : "5:00PM",
  "saturday_close" : "5:00PM"
}
, {
  "thursday_close" : "8:00PM",
  "zip_code" : "60634",
  "phone" : "(312) 746-5142",
  "friday_open" : "9:00AM",
  "location" : {
    "needs_recoding" : false,
    "longitude" : "-87.78594973344748",
    "latitude" : "41.93661158805253",
    "human_address" : "{\"address\":\"3104 N Narragansett Ave\",\"city\":\"Chicago\",\"state\":\"IL\",\"zip\":\"60634\"}"
  },
  "sunday_close" : "CLOSED",
  "hours_of_operation" : "M, W: 10am-6pm;  Tu, Th: 12pm-8pm; F, Sa: 9am-5pm; Su: Closed",
  "tuesday_open" : "12:00PM",
  "state" : "IL",
  "thursday_open" : "12:00PM",
  "wednesday_close" : "6:00PM",
  "name" : "West Belmont",
  "wednesday_open" : "10:00AM",
  "city" : "Chicago",
  "sunday_open" : "CLOSED",
  "monday_close" : "6:00PM",
  "tuesday_close" : "8:00PM",
  "address" : "3104 N Narragansett Ave",
  "monday_open" : "10:00AM",
  "saturday_open" : "9:00AM",
  "site_type" : "Library",
  "friday_close" : "5:00PM",
  "saturday_close" : "5:00PM"
}
, {
  "thursday_close" : "8:00PM",
  "zip_code" : "60651",
  "phone" : "(312) 743-0260",
  "friday_open" : "9:00AM",
  "location" : {
    "needs_recoding" : false,
    "longitude" : "-87.74789108131557",
    "latitude" : "41.89500919818278",
    "human_address" : "{\"address\":\"4856 W Chicago Ave\",\"city\":\"Chicago\",\"state\":\"IL\",\"zip\":\"60651\"}"
  },
  "sunday_close" : "CLOSED",
  "hours_of_operation" : "M, W: 10am-6pm;  Tu, Th: 12pm-8pm; F, Sa: 9am-5pm; Su: Closed",
  "tuesday_open" : "12:00PM",
  "state" : "IL",
  "thursday_open" : "12:00PM",
  "wednesday_close" : "6:00PM",
  "name" : "West Chicago Ave",
  "wednesday_open" : "10:00AM",
  "city" : "Chicago",
  "sunday_open" : "CLOSED",
  "monday_close" : "6:00PM",
  "tuesday_close" : "8:00PM",
  "address" : "4856 W Chicago Ave",
  "monday_open" : "10:00AM",
  "saturday_open" : "9:00AM",
  "site_type" : "Library",
  "friday_close" : "5:00PM",
  "saturday_close" : "5:00PM"
}
, {
  "thursday_close" : "6:00PM",
  "zip_code" : "60636",
  "phone" : "(312) 747-3481",
  "friday_open" : "9:00AM",
  "location" : {
    "needs_recoding" : false,
    "longitude" : "-87.66814610717171",
    "latitude" : "41.77934452087478",
    "human_address" : "{\"address\":\"1745 W 63rd St\",\"city\":\"Chicago\",\"state\":\"IL\",\"zip\":\"60636\"}"
  },
  "sunday_close" : "CLOSED",
  "hours_of_operation" : "M, W: 12pm-8pm; Tu, Th: 10am-6pm; F, Sa: 9am-5pm; Su: Closed",
  "tuesday_open" : "10:00AM",
  "state" : "IL",
  "thursday_open" : "10:00AM",
  "wednesday_close" : "8:00PM",
  "name" : "West Englewood",
  "wednesday_open" : "12:00PM",
  "city" : "Chicago",
  "sunday_open" : "CLOSED",
  "monday_close" : "8:00PM",
  "tuesday_close" : "6:00PM",
  "address" : "1745 W 63rd St",
  "monday_open" : "12:00PM",
  "saturday_open" : "9:00AM",
  "site_type" : "Library",
  "friday_close" : "5:00PM",
  "saturday_close" : "5:00PM"
}
, {
  "thursday_close" : "6:00PM",
  "zip_code" : "60629",
  "phone" : "(312) 747-7381",
  "friday_open" : "9:00AM",
  "location" : {
    "needs_recoding" : false,
    "longitude" : "-87.72357170491985",
    "latitude" : "41.778718730032836",
    "human_address" : "{\"address\":\"4020 W 63rd St\",\"city\":\"Chicago\",\"state\":\"IL\",\"zip\":\"60629\"}"
  },
  "sunday_close" : "CLOSED",
  "hours_of_operation" : "M, W: 12pm-8pm; Tu, Th: 10am-6pm; F, Sa: 9am-5pm; Su: Closed",
  "tuesday_open" : "10:00AM",
  "state" : "IL",
  "thursday_open" : "10:00AM",
  "wednesday_close" : "8:00PM",
  "name" : "West Lawn",
  "wednesday_open" : "12:00PM",
  "city" : "Chicago",
  "sunday_open" : "CLOSED",
  "monday_close" : "8:00PM",
  "tuesday_close" : "6:00PM",
  "address" : "4020 W 63rd St",
  "monday_open" : "12:00PM",
  "saturday_open" : "9:00AM",
  "site_type" : "Library",
  "friday_close" : "5:00PM",
  "saturday_close" : "5:00PM"
}
, {
  "thursday_close" : "6:00PM",
  "zip_code" : "60643",
  "phone" : "(312) 747-1425",
  "friday_open" : "9:00AM",
  "location" : {
    "needs_recoding" : false,
    "longitude" : "-87.64351692717509",
    "latitude" : "41.677842548079575",
    "human_address" : "{\"address\":\"830 W 119th St\",\"city\":\"Chicago\",\"state\":\"IL\",\"zip\":\"60643\"}"
  },
  "sunday_close" : "CLOSED",
  "hours_of_operation" : "M, W: 12pm-8pm; Tu, Th: 10am-6pm; F, Sa: 9am-5pm; Su: Closed",
  "tuesday_open" : "10:00AM",
  "state" : "IL",
  "thursday_open" : "10:00AM",
  "wednesday_close" : "8:00PM",
  "name" : "West Pullman",
  "wednesday_open" : "12:00PM",
  "city" : "Chicago",
  "sunday_open" : "CLOSED",
  "monday_close" : "8:00PM",
  "tuesday_close" : "6:00PM",
  "address" : "830 W 119th St",
  "monday_open" : "12:00PM",
  "saturday_open" : "9:00AM",
  "site_type" : "Library",
  "friday_close" : "5:00PM",
  "saturday_close" : "5:00PM"
}
, {
  "thursday_close" : "8:00PM",
  "zip_code" : "60622",
  "phone" : "(312) 743-0450",
  "friday_open" : "9:00AM",
  "location" : {
    "needs_recoding" : false,
    "longitude" : "-87.66849893256898",
    "latitude" : "41.89603442529619",
    "human_address" : "{\"address\":\"1625 W Chicago Ave\",\"city\":\"Chicago\",\"state\":\"IL\",\"zip\":\"60622\"}"
  },
  "sunday_close" : "CLOSED",
  "hours_of_operation" : "M, W: 10am-6pm;  Tu, Th: 12pm-8pm; F, Sa: 9am-5pm; Su: Closed",
  "tuesday_open" : "12:00PM",
  "state" : "IL",
  "thursday_open" : "12:00PM",
  "wednesday_close" : "6:00PM",
  "name" : "West Town",
  "wednesday_open" : "10:00AM",
  "city" : "Chicago",
  "sunday_open" : "CLOSED",
  "monday_close" : "6:00PM",
  "tuesday_close" : "8:00PM",
  "address" : "1625 W Chicago Ave",
  "monday_open" : "10:00AM",
  "saturday_open" : "9:00AM",
  "site_type" : "Library",
  "friday_close" : "5:00PM",
  "saturday_close" : "5:00PM"
}
, {
  "thursday_close" : "8:00PM",
  "zip_code" : "60619",
  "phone" : "(312) 747-0039",
  "friday_open" : "9:00AM",
  "location" : {
    "needs_recoding" : false,
    "longitude" : "-87.6148795540565",
    "latitude" : "41.75108787672468",
    "human_address" : "{\"address\":\"7901 S King Drive\",\"city\":\"Chicago\",\"state\":\"IL\",\"zip\":\"60619\"}"
  },
  "sunday_close" : "CLOSED",
  "hours_of_operation" : "M, W: 10am-6pm;  Tu, Th: 12pm-8pm; F, Sa: 9am-5pm; Su: Closed",
  "tuesday_open" : "12:00PM",
  "state" : "IL",
  "thursday_open" : "12:00PM",
  "wednesday_close" : "6:00PM",
  "name" : "Whitney M. Young, Jr.",
  "wednesday_open" : "10:00AM",
  "city" : "Chicago",
  "sunday_open" : "CLOSED",
  "monday_close" : "6:00PM",
  "tuesday_close" : "8:00PM",
  "address" : "7901 S King Drive",
  "monday_open" : "10:00AM",
  "saturday_open" : "9:00AM",
  "site_type" : "Library",
  "friday_close" : "5:00PM",
  "saturday_close" : "5:00PM"
}
, {
  "thursday_close" : "9:00PM",
  "zip_code" : "60628",
  "phone" : "(312) 747-6900",
  "friday_open" : "9:00AM",
  "location" : {
    "needs_recoding" : false,
    "longitude" : "-87.64305653437839",
    "latitude" : "41.72096170139649",
    "human_address" : "{\"address\":\"9525 S Halsted St\",\"city\":\"Chicago\",\"state\":\"IL\",\"zip\":\"60628\"}"
  },
  "sunday_close" : "5:00PM",
  "hours_of_operation" : "M-th: 9am-9pm; F, Sa: 9am-5pm; Su: 1pm-5pm",
  "tuesday_open" : "9:00AM",
  "state" : "IL",
  "thursday_open" : "9:00AM",
  "wednesday_close" : "9:00PM",
  "name" : "Woodson Regional",
  "wednesday_open" : "9:00AM",
  "city" : "Chicago",
  "sunday_open" : "1:00PM",
  "monday_close" : "9:00PM",
  "tuesday_close" : "9:00PM",
  "address" : "9525 S Halsted St",
  "monday_open" : "9:00AM",
  "saturday_open" : "9:00AM",
  "site_type" : "Library",
  "friday_close" : "5:00PM",
  "saturday_close" : "5:00PM"
}
, {
  "thursday_close" : "6:00PM",
  "zip_code" : "60652",
  "phone" : "(312) 747-2696",
  "friday_open" : "9:00AM",
  "location" : {
    "needs_recoding" : false,
    "longitude" : "-87.70215502694877",
    "latitude" : "41.73836545679345",
    "human_address" : "{\"address\":\"8530 S Kedzie Ave\",\"city\":\"Chicago\",\"state\":\"IL\",\"zip\":\"60652\"}"
  },
  "sunday_close" : "CLOSED",
  "hours_of_operation" : "M, W: 12pm-8pm; Tu, Th: 10am-6pm; F, Sa: 9am-5pm; Su: Closed",
  "tuesday_open" : "10:00AM",
  "state" : "IL",
  "thursday_open" : "10:00AM",
  "wednesday_close" : "8:00PM",
  "name" : "Wrightwood-Ashburn",
  "wednesday_open" : "12:00PM",
  "city" : "Chicago",
  "sunday_open" : "CLOSED",
  "monday_close" : "8:00PM",
  "tuesday_close" : "6:00PM",
  "address" : "8530 S Kedzie Ave",
  "monday_open" : "12:00PM",
  "saturday_open" : "9:00AM",
  "site_type" : "Library",
  "friday_close" : "5:00PM",
  "saturday_close" : "5:00PM"
}
 ]